{
  "data": [
    {
      "id": 9,
      "nom": "MONOPRIX COURBEVOIE",
      "adresse": "10-12 rue de l'Abreuvoir",
      "code_postal": "92400",
      "ville": "COURBEVOIE",
      "description": "",
      "lat": 48.8921358,
      "long": 2.2537818,
      "active": true,
      "createdAt": "2023-01-13T07:45:43.196Z",
      "type": null
    },
    {
      "id": 11,
      "nom": "MONO AVENUE DE CHOISY",
      "adresse": "63 avenue Choisy",
      "code_postal": "75013",
      "ville": "PARIS",
      "description": "fermé définitivement",
      "lat": 48.8231754,
      "long": 2.3620584,
      "active": true,
      "createdAt": "2023-01-13T07:45:43.231Z",
      "type": null
    },
    {
      "id": 13,
      "nom": "MONO LA CELLE CHATEAU",
      "adresse": "18 avenue de la jonchère",
      "code_postal": "78170",
      "ville": "LA CELLE SAINT CLOUD",
      "description": "Centre Commercial Elysée 2",
      "lat": 48.85943,
      "long": 2.14718,
      "active": true,
      "createdAt": "2023-01-13T07:45:43.245Z",
      "type": null
    },
    {
      "id": 16,
      "nom": "MONOPRIX ST TROPEZ",
      "adresse": "9 avenue Général Leclerc",
      "code_postal": "83990",
      "ville": "SAINT TROPEZ",
      "description": "",
      "lat": 43.2693,
      "long": 6.63583,
      "active": true,
      "createdAt": "2023-01-13T07:45:43.257Z",
      "type": null
    },
    {
      "id": 18,
      "nom": "MONO STRASBOURG KLEBER",
      "adresse": "5 rue des Grandes Arcades",
      "code_postal": "67000",
      "ville": "STRASBOURG",
      "description": "",
      "lat": 48.5839838,
      "long": 7.7465935,
      "active": true,
      "createdAt": "2023-01-13T07:45:43.267Z",
      "type": null
    },
    {
      "id": 19,
      "nom": "MONO TOLBIAC",
      "adresse": "104 Avenue de France",
      "code_postal": "75013",
      "ville": "PARIS",
      "description": "",
      "lat": 48.8300497,
      "long": 2.3776005,
      "active": true,
      "createdAt": "2023-01-13T07:45:43.272Z",
      "type": null
    },
    {
      "id": 20,
      "nom": "MONO GRASSE",
      "adresse": "Place Martelly",
      "code_postal": "06130",
      "ville": "GRASSE",
      "description": "",
      "lat": 43.6609465,
      "long": 6.92433376,
      "active": true,
      "createdAt": "2023-01-13T07:45:43.276Z",
      "type": null
    },
    {
      "id": 21,
      "nom": "MONO ROUEN GROS HORLOGE",
      "adresse": "73 rue du Gros Horloge",
      "code_postal": "76000",
      "ville": "ROUEN",
      "description": "",
      "lat": 49.4412644,
      "long": 1.0917009,
      "active": true,
      "createdAt": "2023-01-13T07:45:43.282Z",
      "type": null
    },
    {
      "id": 22,
      "nom": "MONO AIX SEXTIUS",
      "adresse": "515 av. Max Juvenal",
      "code_postal": "13100",
      "ville": "AIX EN PROVENCE",
      "description": "",
      "lat": 43.5236655,
      "long": 5.4371014,
      "active": true,
      "createdAt": "2023-01-13T07:45:43.287Z",
      "type": null
    },
    {
      "id": 23,
      "nom": "MONO FONTAINE",
      "adresse": "52 rue Fontaine",
      "code_postal": "75009",
      "ville": "PARIS",
      "description": "",
      "lat": 48.8825539,
      "long": 2.3334015,
      "active": true,
      "createdAt": "2023-01-13T07:45:43.295Z",
      "type": null
    },
    {
      "id": 24,
      "nom": "MONO CAEN",
      "adresse": "45/49 bd Leclerc",
      "code_postal": "14011",
      "ville": "CAEN",
      "description": "",
      "lat": 49.18144,
      "long": -0.36118,
      "active": true,
      "createdAt": "2023-01-13T07:45:43.300Z",
      "type": null
    },
    {
      "id": 25,
      "nom": "MONO SEBASTOPOL",
      "adresse": "95 bd Sébastopol",
      "code_postal": "75002",
      "ville": "PARIS",
      "description": "",
      "lat": 48.8655945,
      "long": 2.3519543,
      "active": true,
      "createdAt": "2023-01-13T07:45:43.304Z",
      "type": null
    },
    {
      "id": 26,
      "nom": "MONO BOURG LA REINE",
      "adresse": "8 rue René Roeckel",
      "code_postal": "92340",
      "ville": "BOURG LA REINE",
      "description": "",
      "lat": 48.7797497,
      "long": 2.3141477,
      "active": true,
      "createdAt": "2023-01-13T07:45:43.308Z",
      "type": null
    },
    {
      "id": 27,
      "nom": "MONO ASNIERES",
      "adresse": "6 place des Victoires",
      "code_postal": "92600",
      "ville": "ASNIERES",
      "description": "",
      "lat": 48.9106305,
      "long": 2.2909071,
      "active": true,
      "createdAt": "2023-01-13T07:45:43.312Z",
      "type": null
    },
    {
      "id": 28,
      "nom": "MONO VINCI",
      "adresse": "14 av Léonard de Vinci",
      "code_postal": "92400",
      "ville": "COURBEVOIE",
      "description": "",
      "lat": 48.8966305,
      "long": 2.2369961,
      "active": true,
      "createdAt": "2023-01-13T07:45:43.323Z",
      "type": null
    },
    {
      "id": 29,
      "nom": "MONOPRIX ANTONY",
      "adresse": "16 rue Auguste Mounie",
      "code_postal": "92160",
      "ville": "ANTONY",
      "description": "",
      "lat": 48.7538547,
      "long": 2.3033707,
      "active": true,
      "createdAt": "2023-01-13T07:45:43.334Z",
      "type": null
    },
    {
      "id": 30,
      "nom": "MONOPRIX CRIMEE",
      "adresse": "119 rue de Flandres",
      "code_postal": "75019",
      "ville": "PARIS",
      "description": "",
      "lat": 48.89195633,
      "long": 2.37828159,
      "active": true,
      "createdAt": "2023-01-13T07:45:43.339Z",
      "type": null
    },
    {
      "id": 31,
      "nom": "MONO LE PERREUX",
      "adresse": "117 av. du Gal de Gaulle",
      "code_postal": "94170",
      "ville": "LE PERREUX sur Marne",
      "description": "",
      "lat": 48.84154,
      "long": 2.5054,
      "active": true,
      "createdAt": "2023-01-13T07:45:43.344Z",
      "type": null
    },
    {
      "id": 32,
      "nom": "MONO ANNECY COURIER",
      "adresse": "65 rue Carnot",
      "code_postal": "74000",
      "ville": "ANNECY",
      "description": "",
      "lat": 45.903666,
      "long": 6.1236826,
      "active": true,
      "createdAt": "2023-01-13T07:45:43.350Z",
      "type": null
    },
    {
      "id": 33,
      "nom": "MONOPRIX CHARTRES",
      "adresse": "21 rue Noel Ballay",
      "code_postal": "28000",
      "ville": "CHARTRES",
      "description": "",
      "lat": 48.44524,
      "long": 1.48576,
      "active": true,
      "createdAt": "2023-01-13T07:45:43.356Z",
      "type": null
    },
    {
      "id": 34,
      "nom": "MONO COMPIEGNE",
      "adresse": "37 rue Solférino",
      "code_postal": "60200",
      "ville": "COMPIEGNE",
      "description": "",
      "lat": 49.4182118,
      "long": 2.8253485,
      "active": true,
      "createdAt": "2023-01-13T07:45:43.361Z",
      "type": null
    },
    {
      "id": 35,
      "nom": "MONO POITIERS",
      "adresse": "1 Rue des Cordeliers",
      "code_postal": "86000",
      "ville": "POITIERS",
      "description": "CC des Cordeliers",
      "lat": 46.58223,
      "long": 0.34299,
      "active": true,
      "createdAt": "2023-01-13T07:45:43.366Z",
      "type": null
    },
    {
      "id": 36,
      "nom": "MONO ST OUEN",
      "adresse": "2/4 rue Garibaldi",
      "code_postal": "93400",
      "ville": "SAINT OUEN",
      "description": "",
      "lat": 48.9052689,
      "long": 2.3306878,
      "active": true,
      "createdAt": "2023-01-13T07:45:43.371Z",
      "type": null
    },
    {
      "id": 37,
      "nom": "MONO MOZART",
      "adresse": "49 rue d'Auteuil",
      "code_postal": "75016",
      "ville": "PARIS",
      "description": "",
      "lat": 48.8477814,
      "long": 2.2647309,
      "active": true,
      "createdAt": "2023-01-13T07:45:43.376Z",
      "type": null
    },
    {
      "id": 38,
      "nom": "MONO ST MANDE II",
      "adresse": "5/7 av Charles de Gaulle",
      "code_postal": "94160",
      "ville": "SAINT MANDE",
      "description": "",
      "lat": 48.84366,
      "long": 2.41765,
      "active": true,
      "createdAt": "2023-01-13T07:45:43.380Z",
      "type": null
    },
    {
      "id": 39,
      "nom": "MONO CHAMBERY LES HALLES",
      "adresse": "Place de Genève",
      "code_postal": "73000",
      "ville": "CHAMBERY",
      "description": "",
      "lat": 45.567306,
      "long": 5.9185932,
      "active": true,
      "createdAt": "2023-01-13T07:45:43.384Z",
      "type": null
    },
    {
      "id": 40,
      "nom": "MONO ANTIBES",
      "adresse": "Place du Général de Gaulle",
      "code_postal": "6560",
      "ville": "ANTIBES",
      "description": "",
      "lat": 43.58036575,
      "long": 7.12088233,
      "active": true,
      "createdAt": "2023-01-13T07:45:43.388Z",
      "type": null
    },
    {
      "id": 41,
      "nom": "MONO MARSEILLE TERRASSES",
      "adresse": "9 Place de la Joliette",
      "code_postal": "13003",
      "ville": "MARSEILLE",
      "description": "CC Les Terrasses du Port",
      "lat": 43.30457,
      "long": 5.36601,
      "active": true,
      "createdAt": "2023-01-13T07:45:43.392Z",
      "type": null
    },
    {
      "id": 42,
      "nom": "MONO AURIOL",
      "adresse": "125 boulevard Vincent Auriol",
      "code_postal": "75013",
      "ville": "PARIS",
      "description": "",
      "lat": 48.833352,
      "long": 2.3643819,
      "active": true,
      "createdAt": "2023-01-13T07:45:43.396Z",
      "type": null
    },
    {
      "id": 43,
      "nom": "MONO REUILLY",
      "adresse": "45 à 55 rue de Reuilly",
      "code_postal": "75012",
      "ville": "PARIS",
      "description": "",
      "lat": 48.84628,
      "long": 2.38796,
      "active": true,
      "createdAt": "2023-01-13T07:45:43.401Z",
      "type": null
    },
    {
      "id": 44,
      "nom": "MONO JOINVILLE",
      "adresse": "rue de Paris",
      "code_postal": "94340",
      "ville": "JOINVILLE LE PONT",
      "description": "",
      "lat": 48.8173987,
      "long": 2.4670158,
      "active": true,
      "createdAt": "2023-01-13T07:45:43.406Z",
      "type": null
    },
    {
      "id": 45,
      "nom": "MONO FORUM DES HALLES",
      "adresse": "101 Porte Berger",
      "code_postal": "75001",
      "ville": "PARIS",
      "description": "Forum des Halles",
      "lat": 48.86144,
      "long": 2.34643,
      "active": true,
      "createdAt": "2023-01-13T07:45:43.410Z",
      "type": null
    },
    {
      "id": 46,
      "nom": "MONO ANNECY PN",
      "adresse": "15 rue du Collège",
      "code_postal": "74000",
      "ville": "ANNECY",
      "description": "",
      "lat": 45.8678551,
      "long": 5.9444337,
      "active": true,
      "createdAt": "2023-01-13T07:45:43.414Z",
      "type": null
    },
    {
      "id": 47,
      "nom": "MONO ST MICHEL",
      "adresse": "24 bd St Michel",
      "code_postal": "75006",
      "ville": "PARIS",
      "description": "",
      "lat": 48.8509559,
      "long": 2.34266122,
      "active": true,
      "createdAt": "2023-01-13T07:45:43.422Z",
      "type": null
    },
    {
      "id": 48,
      "nom": "MONO NATION",
      "adresse": "20 bd de Charonne",
      "code_postal": "75020",
      "ville": "PARIS",
      "description": "",
      "lat": 48.8495228,
      "long": 2.399331,
      "active": true,
      "createdAt": "2023-01-13T07:45:43.436Z",
      "type": null
    },
    {
      "id": 49,
      "nom": "MONO MONTPARNASSE",
      "adresse": "31 rue du Départ",
      "code_postal": "75014",
      "ville": "PARIS",
      "description": "",
      "lat": 48.842061,
      "long": 2.3228525,
      "active": true,
      "createdAt": "2023-01-13T07:45:43.446Z",
      "type": null
    },
    {
      "id": 50,
      "nom": "MONO REPUBLIQUE",
      "adresse": "164 rue du Temple",
      "code_postal": "75003",
      "ville": "PARIS",
      "description": "",
      "lat": 48.8647346,
      "long": 2.3596803,
      "active": true,
      "createdAt": "2023-01-13T07:45:43.456Z",
      "type": null
    },
    {
      "id": 51,
      "nom": "MONO ST GERMAIN",
      "adresse": "67 rue de Pologne",
      "code_postal": "78100",
      "ville": "SAINT GERMAIN EN LAYE",
      "description": "",
      "lat": 48.8980712,
      "long": 2.0878639,
      "active": true,
      "createdAt": "2023-01-13T07:45:43.461Z",
      "type": null
    },
    {
      "id": 52,
      "nom": "MONO BEAUGRENELLE",
      "adresse": "19 rue Linois",
      "code_postal": "75015",
      "ville": "PARIS",
      "description": "",
      "lat": 48.8482786,
      "long": 2.2835134,
      "active": true,
      "createdAt": "2023-01-13T07:45:43.466Z",
      "type": null
    },
    {
      "id": 53,
      "nom": "MONO CHARENTON",
      "adresse": "75 rue de Paris",
      "code_postal": "94220",
      "ville": "CHARENTON LE PONT",
      "description": "",
      "lat": 48.8212316,
      "long": 2.4134997,
      "active": true,
      "createdAt": "2023-01-13T07:45:43.471Z",
      "type": null
    },
    {
      "id": 54,
      "nom": "MONO BOULOGNE",
      "adresse": "187 bd Jean Jaurès",
      "code_postal": "92100",
      "ville": "BOULOGNE BILLANCOURT",
      "description": "",
      "lat": 48.83448015,
      "long": 2.24360167,
      "active": true,
      "createdAt": "2023-01-13T07:45:43.477Z",
      "type": null
    },
    {
      "id": 17,
      "nom": "MONOP' ANGERS",
      "adresse": "5 Place de la République",
      "code_postal": "49100",
      "ville": "ANGERS",
      "description": "CC Fleur d'Eau",
      "lat": 47.47237,
      "long": -0.55451,
      "active": true,
      "createdAt": "2023-01-13T07:45:43.262Z",
      "type": {
        "id": 22,
        "name": "monop",
        "createdAt": "2023-02-23T09:42:30.544Z",
        "publishedAt": "2023-02-23T09:43:13.234Z",
        "logo": {
          "id": 267,
          "name": "monop.png",
          "alternativeText": null,
          "caption": null,
          "width": 322,
          "height": 140,
          "formats": {
            "thumbnail": {
              "ext": ".png",
              "url": "/uploads/thumbnail_monop_fe3a0b2799.png",
              "hash": "thumbnail_monop_fe3a0b2799",
              "mime": "image/png",
              "name": "thumbnail_monop.png",
              "path": null,
              "size": 8.47,
              "width": 245,
              "height": 107
            }
          },
          "hash": "monop_fe3a0b2799",
          "ext": ".png",
          "mime": "image/png",
          "size": 1.5,
          "url": "/uploads/monop_fe3a0b2799.png",
          "previewUrl": null,
          "provider": "local",
          "provider_metadata": null,
          "createdAt": "2023-02-23T09:41:29.957Z"
        }
      }
    },
    {
      "id": 56,
      "nom": "MONO SABLONS",
      "adresse": "72 av Charles de Gaulle",
      "code_postal": "92200",
      "ville": "NEUILLY sur SEINE",
      "description": "",
      "lat": 48.8816754,
      "long": 2.2712941,
      "active": true,
      "createdAt": "2023-01-13T07:45:43.487Z",
      "type": null
    },
    {
      "id": 57,
      "nom": "MONO ST ANTOINE",
      "adresse": "99 fbg Saint Antoine",
      "code_postal": "75011",
      "ville": "PARIS",
      "description": "",
      "lat": 48.85146,
      "long": 2.37589,
      "active": true,
      "createdAt": "2023-01-13T07:45:43.492Z",
      "type": null
    },
    {
      "id": 58,
      "nom": "MONO OPERA",
      "adresse": "21 av de l'Opéra",
      "code_postal": "75001",
      "ville": "PARIS",
      "description": "",
      "lat": 48.8664954,
      "long": 2.333878,
      "active": true,
      "createdAt": "2023-01-13T07:45:43.496Z",
      "type": null
    },
    {
      "id": 59,
      "nom": "MONOPRIX SAINT PAUL",
      "adresse": "71 rue Saint Antoine",
      "code_postal": "75004",
      "ville": "PARIS",
      "description": "",
      "lat": 48.8543144,
      "long": 2.3633302,
      "active": true,
      "createdAt": "2023-01-13T07:45:43.501Z",
      "type": null
    },
    {
      "id": 60,
      "nom": "MONO COLOMBES",
      "adresse": "85 rue Saint Denis",
      "code_postal": "92700",
      "ville": "COLOMBES",
      "description": "",
      "lat": 48.9238537,
      "long": 2.2530769,
      "active": true,
      "createdAt": "2023-01-13T07:45:43.506Z",
      "type": null
    },
    {
      "id": 61,
      "nom": "MONO COMMERCE",
      "adresse": "2 rue du Commerce",
      "code_postal": "75015",
      "ville": "PARIS",
      "description": "",
      "lat": 48.8488575,
      "long": 2.2975571,
      "active": true,
      "createdAt": "2023-01-13T07:45:43.511Z",
      "type": null
    },
    {
      "id": 62,
      "nom": "MONO DRAGON",
      "adresse": "50 rue de Rennes",
      "code_postal": "75006",
      "ville": "PARIS",
      "description": "",
      "lat": 48.8534706,
      "long": 2.3326702,
      "active": true,
      "createdAt": "2023-01-13T07:45:43.518Z",
      "type": null
    },
    {
      "id": 63,
      "nom": "MONO ROND POINT",
      "adresse": "258 av du Prado",
      "code_postal": "13008",
      "ville": "MARSEILLE",
      "description": "",
      "lat": 43.2746379,
      "long": 5.3897235,
      "active": true,
      "createdAt": "2023-01-13T07:45:43.525Z",
      "type": null
    },
    {
      "id": 64,
      "nom": "G.L. RENNES",
      "adresse": "2, Rue Rochan",
      "code_postal": "35025",
      "ville": "RENNES",
      "description": "",
      "lat": 48.11033,
      "long": -1.6801,
      "active": true,
      "createdAt": "2023-01-13T07:45:43.530Z",
      "type": null
    },
    {
      "id": 65,
      "nom": "MONO MONTREUIL",
      "adresse": "19 av de la résistance",
      "code_postal": "93100",
      "ville": "MONTREUIL",
      "description": "",
      "lat": 48.859353,
      "long": 2.436785,
      "active": true,
      "createdAt": "2023-01-13T07:45:43.545Z",
      "type": null
    },
    {
      "id": 66,
      "nom": "MONO CAUMARTIN",
      "adresse": "56 rue de Caumartin",
      "code_postal": "75009",
      "ville": "PARIS",
      "description": "",
      "lat": 48.8745692,
      "long": 2.3285411,
      "active": true,
      "createdAt": "2023-01-13T07:45:43.561Z",
      "type": null
    },
    {
      "id": 67,
      "nom": "MONO VINCENNES",
      "adresse": "44 rue du Midi",
      "code_postal": "94300",
      "ville": "VINCENNES",
      "description": "",
      "lat": 48.8472946,
      "long": 2.4353132,
      "active": true,
      "createdAt": "2023-01-13T07:45:43.566Z",
      "type": null
    },
    {
      "id": 68,
      "nom": "MONO PELLEPORT",
      "adresse": "131 av Gambetta",
      "code_postal": "75020",
      "ville": "PARIS",
      "description": "",
      "lat": 48.8688039,
      "long": 2.4016891,
      "active": true,
      "createdAt": "2023-01-13T07:45:43.571Z",
      "type": null
    },
    {
      "id": 69,
      "nom": "MONO TERNES",
      "adresse": "25 av des Ternes",
      "code_postal": "75017",
      "ville": "PARIS",
      "description": "",
      "lat": 48.8782438,
      "long": 2.2952409,
      "active": true,
      "createdAt": "2023-01-13T07:45:43.575Z",
      "type": null
    },
    {
      "id": 70,
      "nom": "MONO ST AUGUSTIN",
      "adresse": "47 bd Malesherbes",
      "code_postal": "75008",
      "ville": "PARIS",
      "description": "",
      "lat": 48.8698417,
      "long": 2.3233407,
      "active": true,
      "createdAt": "2023-01-13T07:45:43.582Z",
      "type": null
    },
    {
      "id": 71,
      "nom": "MONO VAUGIRARD",
      "adresse": "340 rue Vaugirard",
      "code_postal": "75015",
      "ville": "PARIS",
      "description": "",
      "lat": 48.8414302,
      "long": 2.29616493,
      "active": true,
      "createdAt": "2023-01-13T07:45:43.590Z",
      "type": null
    },
    {
      "id": 72,
      "nom": "MONO PARLY 2",
      "adresse": "Centre Cial Parly II",
      "code_postal": "78150",
      "ville": "LE CHESNAY",
      "description": "",
      "lat": 48.82809,
      "long": 2.11636,
      "active": true,
      "createdAt": "2023-01-13T07:45:43.594Z",
      "type": null
    },
    {
      "id": 73,
      "nom": "MONO CNIT LA DEFENSE",
      "adresse": "2 Place de la Défense",
      "code_postal": "92800",
      "ville": "PUTEAUX",
      "description": "",
      "lat": 48.89177,
      "long": 2.24105,
      "active": true,
      "createdAt": "2023-01-13T07:45:43.599Z",
      "type": null
    },
    {
      "id": 74,
      "nom": "MONO LYON LA PART DIEU",
      "adresse": "10-12 bd Vivier-Merle",
      "code_postal": "69003",
      "ville": "LYON",
      "description": "",
      "lat": 45.7561786,
      "long": 4.8589151,
      "active": true,
      "createdAt": "2023-01-13T07:45:43.603Z",
      "type": null
    },
    {
      "id": 75,
      "nom": "MONO ASNIERES STATION",
      "adresse": "2 Rue de la Station",
      "code_postal": "92600",
      "ville": "ASNIERES",
      "description": "",
      "lat": 48.9063,
      "long": 2.28434,
      "active": true,
      "createdAt": "2023-01-13T07:45:43.609Z",
      "type": null
    },
    {
      "id": 76,
      "nom": "MONO MERIGNAC",
      "adresse": "Rue de la vieille Eglise",
      "code_postal": "33700",
      "ville": "MERIGNAC",
      "description": "",
      "lat": 44.8406759,
      "long": -0.6477925,
      "active": true,
      "createdAt": "2023-01-13T07:45:43.616Z",
      "type": null
    },
    {
      "id": 77,
      "nom": "MONOPRIX LA FERME LEVALLOIS",
      "adresse": "84 Rue de Villiers",
      "code_postal": "92300",
      "ville": "Levallois-Perret",
      "description": "",
      "lat": 48.8925888,
      "long": 2.27773612,
      "active": true,
      "createdAt": "2023-01-13T07:45:43.621Z",
      "type": null
    },
    {
      "id": 78,
      "nom": "MONO LYON GBL",
      "adresse": "27 rue de la République",
      "code_postal": "69002",
      "ville": "LYON",
      "description": "",
      "lat": 45.7592666,
      "long": 4.8350299,
      "active": true,
      "createdAt": "2023-01-13T07:45:43.626Z",
      "type": null
    },
    {
      "id": 79,
      "nom": "MONO BOIS COLOMBES",
      "adresse": "20 Rue du Capitaine Guynemer",
      "code_postal": "92270",
      "ville": "BOIS COLOMBES",
      "description": "Zac des Bruyères",
      "lat": 48.90783,
      "long": 2.26214,
      "active": true,
      "createdAt": "2023-01-13T07:45:43.631Z",
      "type": null
    },
    {
      "id": 80,
      "nom": "MONO ENGHIEN LES BAINS",
      "adresse": "46 rue du Général de Gaulle",
      "code_postal": "95880",
      "ville": "ENGHIEN",
      "description": "",
      "lat": 48.97019,
      "long": 2.30632,
      "active": true,
      "createdAt": "2023-01-13T07:45:43.635Z",
      "type": null
    },
    {
      "id": 81,
      "nom": "MONO TOULON",
      "adresse": "rue Ferdinand Pelloutier",
      "code_postal": "83000",
      "ville": "TOULON",
      "description": "",
      "lat": 43.1233267,
      "long": 5.95179,
      "active": true,
      "createdAt": "2023-01-13T07:45:43.640Z",
      "type": null
    },
    {
      "id": 82,
      "nom": "MONO VICHY",
      "adresse": "16 rue Georges Clémenceau",
      "code_postal": "3200",
      "ville": "VICHY",
      "description": "",
      "lat": 46.137555,
      "long": 3.44214376,
      "active": true,
      "createdAt": "2023-01-13T07:45:43.644Z",
      "type": null
    },
    {
      "id": 83,
      "nom": "MONO LOURDES",
      "adresse": "9 place Champs Communs",
      "code_postal": "65100",
      "ville": "LOURDES",
      "description": "",
      "lat": 43.09378,
      "long": -0.04616,
      "active": true,
      "createdAt": "2023-01-13T07:45:43.653Z",
      "type": null
    },
    {
      "id": 84,
      "nom": "MONO AIX LES BAINS",
      "adresse": "179 rue de Genève",
      "code_postal": "73100",
      "ville": "AIX LES BAINS",
      "description": "",
      "lat": 45.6925119,
      "long": 5.9119747,
      "active": true,
      "createdAt": "2023-01-13T07:45:43.657Z",
      "type": null
    },
    {
      "id": 85,
      "nom": "MONO RASPAIL",
      "adresse": "6, boulevard Raspail",
      "code_postal": "75007",
      "ville": "PARIS",
      "description": "",
      "lat": 48.8551429,
      "long": 2.3255528,
      "active": true,
      "createdAt": "2023-01-13T07:45:43.669Z",
      "type": null
    },
    {
      "id": 93,
      "nom": "E.LECLERC - FRANCONVILLE",
      "adresse": "362 Rue du Général Leclerc",
      "code_postal": "65130",
      "ville": "FRANCONVILLE",
      "description": "",
      "lat": 48.9901126,
      "long": 2.2064566,
      "active": true,
      "createdAt": "2023-01-13T07:45:43.711Z",
      "type": null
    },
    {
      "id": 97,
      "nom": "Cala",
      "adresse": "182 Rue Colbert",
      "code_postal": "92700",
      "ville": "Colombes",
      "description": "Livraison uniquement",
      "lat": 48.91721,
      "long": 2.23005,
      "active": true,
      "createdAt": "2023-01-13T07:45:43.738Z",
      "type": null
    },
    {
      "id": 94,
      "nom": "BAAGAA",
      "adresse": "54 rue de Lonchamp",
      "code_postal": "75016",
      "ville": "Paris",
      "description": "",
      "lat": 48.86508,
      "long": 2.28739,
      "active": true,
      "createdAt": "2023-01-13T07:45:43.726Z",
      "type": {
        "id": 19,
        "name": "baagaa",
        "createdAt": "2022-12-23T15:16:26.017Z",
        "publishedAt": "2022-12-23T15:16:28.014Z",
        "logo": null
      }
    },
    {
      "id": 86,
      "nom": "Breakfast In America 2",
      "adresse": "4 Rue Malher",
      "code_postal": "75004",
      "ville": "PARIS",
      "description": "",
      "lat": 48.855514,
      "long": 2.3613142,
      "active": true,
      "createdAt": "2023-01-13T07:45:43.680Z",
      "type": {
        "id": 18,
        "name": "breakfast-america",
        "createdAt": "2022-12-23T14:49:42.652Z",
        "publishedAt": "2022-12-23T14:49:44.450Z",
        "logo": null
      }
    },
    {
      "id": 90,
      "nom": "Burger & Fries - Bastille",
      "adresse": "5 Rue de la Roquette",
      "code_postal": "75011",
      "ville": "PARIS",
      "description": "",
      "lat": 48.8538992,
      "long": 2.3707543,
      "active": true,
      "createdAt": "2023-01-13T07:45:43.696Z",
      "type": {
        "id": 16,
        "name": "burger-fries",
        "createdAt": "2022-12-23T14:49:11.350Z",
        "publishedAt": "2022-12-23T14:49:13.493Z",
        "logo": null
      }
    },
    {
      "id": 89,
      "nom": "Burger & Fries - Odéon",
      "adresse": "95 Boulevard Saint-Germain",
      "code_postal": "75006",
      "ville": "PARIS",
      "description": "",
      "lat": 48.8520562,
      "long": 2.3392252,
      "active": true,
      "createdAt": "2023-01-13T07:45:43.692Z",
      "type": {
        "id": 16,
        "name": "burger-fries",
        "createdAt": "2022-12-23T14:49:11.350Z",
        "publishedAt": "2022-12-23T14:49:13.493Z",
        "logo": null
      }
    },
    {
      "id": 96,
      "nom": "Cala",
      "adresse": "29 Rue Linné",
      "code_postal": "75005",
      "ville": "Paris",
      "description": "",
      "lat": 48.84541,
      "long": 2.35446,
      "active": true,
      "createdAt": "2023-01-13T07:45:43.734Z",
      "type": {
        "id": 20,
        "name": "cala",
        "createdAt": "2022-12-23T15:23:31.758Z",
        "publishedAt": "2022-12-23T15:23:34.838Z",
        "logo": null
      }
    },
    {
      "id": 95,
      "nom": "Captain Marcel",
      "adresse": "22 rue Eugène Hénaff",
      "code_postal": "78190",
      "ville": "Trappes",
      "description": "",
      "lat": 48.77015,
      "long": 2.00639,
      "active": true,
      "createdAt": "2023-01-13T07:45:43.730Z",
      "type": {
        "id": 14,
        "name": "captain-marcel",
        "createdAt": "2022-12-23T14:48:44.110Z",
        "publishedAt": "2022-12-23T14:48:46.004Z",
        "logo": null
      }
    },
    {
      "id": 92,
      "nom": "Galeries Gourmandes",
      "adresse": "2 Pl. de la Prte Maillot",
      "code_postal": "75017",
      "ville": "PARIS",
      "description": "",
      "lat": 48.8786,
      "long": 2.2838,
      "active": true,
      "createdAt": "2023-01-13T07:45:43.707Z",
      "type": {
        "id": 13,
        "name": "galeries-gourmandes",
        "createdAt": "2022-12-23T14:48:29.746Z",
        "publishedAt": "2022-12-23T14:48:31.692Z",
        "logo": null
      }
    },
    {
      "id": 87,
      "nom": "Le Grand Rex",
      "adresse": "1 Boulevard Poissonnière",
      "code_postal": "75002",
      "ville": "PARIS",
      "description": "",
      "lat": 48.8705535,
      "long": 2.3477496,
      "active": true,
      "createdAt": "2023-01-13T07:45:43.684Z",
      "type": {
        "id": 17,
        "name": "grand-rex",
        "createdAt": "2022-12-23T14:49:30.152Z",
        "publishedAt": "2022-12-23T14:49:31.979Z",
        "logo": null
      }
    },
    {
      "id": 91,
      "nom": "Publicis Drugstore",
      "adresse": "133 Av. des Champs-Élysées",
      "code_postal": "75008",
      "ville": "PARIS",
      "description": "",
      "lat": 48.8726188,
      "long": 2.2967258,
      "active": true,
      "createdAt": "2023-01-13T07:45:43.701Z",
      "type": {
        "id": 15,
        "name": "publicis",
        "createdAt": "2022-12-23T14:48:58.851Z",
        "publishedAt": "2022-12-23T14:49:00.754Z",
        "logo": null
      }
    },
    {
      "id": 146,
      "nom": "MONOP BOULEVARD DE SEBASTOPOL",
      "adresse": "6 Bd de Sébastopol",
      "code_postal": "75004",
      "ville": "Paris",
      "description": "",
      "lat": 48.8590185,
      "long": 2.3487543,
      "active": true,
      "createdAt": "2023-01-13T07:45:44.021Z",
      "type": null
    },
    {
      "id": 147,
      "nom": "MONOP RUE DU 08 MAI 1945",
      "adresse": "13 Rue du 8 Mai 1945",
      "code_postal": "75010",
      "ville": "Paris",
      "description": "",
      "lat": 48.8762136,
      "long": 2.3570915,
      "active": true,
      "createdAt": "2023-01-13T07:45:44.026Z",
      "type": null
    },
    {
      "id": 148,
      "nom": "MONOP RUE DE LYON",
      "adresse": "4 Rue de Lyon",
      "code_postal": "75012",
      "ville": "Paris",
      "description": "",
      "lat": 48.8462369,
      "long": 2.3724753,
      "active": true,
      "createdAt": "2023-01-13T07:45:44.031Z",
      "type": null
    },
    {
      "id": 149,
      "nom": "MONOP PARC DES PRINCES",
      "adresse": "1 Rte de la Reine",
      "code_postal": "92100",
      "ville": "BOULOGNE BILLANCOURT",
      "description": "",
      "lat": 48.83839143,
      "long": 2.25171507,
      "active": true,
      "createdAt": "2023-01-13T07:45:44.036Z",
      "type": null
    },
    {
      "id": 150,
      "nom": "MONOP ENTREPRENEURS",
      "adresse": "77 Rue des Entrepreneurs",
      "code_postal": "75015",
      "ville": "Paris",
      "description": "",
      "lat": 48.8443489,
      "long": 2.2915444,
      "active": true,
      "createdAt": "2023-01-13T07:45:44.041Z",
      "type": null
    },
    {
      "id": 151,
      "nom": "MONOP PIGALLE",
      "adresse": "1-3 Pl. Jean Baptiste Pigalle",
      "code_postal": "75009",
      "ville": "Paris",
      "description": "",
      "lat": 48.88198639,
      "long": 2.33777912,
      "active": true,
      "createdAt": "2023-01-13T07:45:44.046Z",
      "type": null
    },
    {
      "id": 152,
      "nom": "MONOP BEAU BOURG",
      "adresse": "135 Rue Saint-Martin",
      "code_postal": "75004",
      "ville": "Paris",
      "description": "",
      "lat": 48.8612193,
      "long": 2.3513449,
      "active": true,
      "createdAt": "2023-01-13T07:45:44.052Z",
      "type": null
    },
    {
      "id": 153,
      "nom": "MONOP RUE DE LISBONNE",
      "adresse": "43 Rue de Lisbonne",
      "code_postal": "75008",
      "ville": "Paris",
      "description": "",
      "lat": 48.8773563,
      "long": 2.3092138,
      "active": true,
      "createdAt": "2023-01-13T07:45:44.056Z",
      "type": null
    },
    {
      "id": 154,
      "nom": "MONOP PLEYEL SAINT DENIS",
      "adresse": "19-29 Rue des Cheminots",
      "code_postal": "93210",
      "ville": "Saint denis",
      "description": "",
      "lat": 48.9172735,
      "long": 2.3521903,
      "active": true,
      "createdAt": "2023-01-13T07:45:44.061Z",
      "type": null
    },
    {
      "id": 155,
      "nom": "MONOP AUSTERLITZ",
      "adresse": "16 Bd de l'Hôpital",
      "code_postal": "75005",
      "ville": "Paris",
      "description": "",
      "lat": 48.8421533,
      "long": 2.3628939,
      "active": true,
      "createdAt": "2023-01-13T07:45:44.066Z",
      "type": null
    },
    {
      "id": 157,
      "nom": "MONOP MADELEINE",
      "adresse": "9 Bd de la Madeleine",
      "code_postal": "75001",
      "ville": "Paris",
      "description": "",
      "lat": 48.8695601,
      "long": 2.3269615,
      "active": true,
      "createdAt": "2023-01-13T07:45:44.075Z",
      "type": null
    },
    {
      "id": 158,
      "nom": "MONOP THIERS NICE",
      "adresse": "7 Av. Thiers",
      "code_postal": "06000",
      "ville": "Nice",
      "description": "",
      "lat": 43.7048982,
      "long": 7.2640243,
      "active": true,
      "createdAt": "2023-01-13T07:45:44.079Z",
      "type": null
    },
    {
      "id": 159,
      "nom": "MONOP MARSEILLE CDG",
      "adresse": "7 Pl. Général de Gaulle",
      "code_postal": "13001",
      "ville": "Marseille",
      "description": "",
      "lat": 49.1106304,
      "long": 6.177744,
      "active": true,
      "createdAt": "2023-01-13T07:45:44.084Z",
      "type": null
    },
    {
      "id": 160,
      "nom": "MONOP PLACE DE ROUBAIX",
      "adresse": "24 Rue de Dunkerque",
      "code_postal": "75010",
      "ville": "Paris",
      "description": "",
      "lat": 48.8805266,
      "long": 2.3527938,
      "active": true,
      "createdAt": "2023-01-13T07:45:44.090Z",
      "type": null
    },
    {
      "id": 161,
      "nom": "MONOP VICTOR HUGO",
      "adresse": "29 Av. Victor Hugo",
      "code_postal": "75116",
      "ville": "Paris",
      "description": "",
      "lat": 48.8718015,
      "long": 2.2907641,
      "active": true,
      "createdAt": "2023-01-13T07:45:44.094Z",
      "type": null
    },
    {
      "id": 162,
      "nom": "MONOP ST ETIENNE",
      "adresse": "7-9 Pl. Hôtel de ville",
      "code_postal": "42000",
      "ville": "Saint-Étienne",
      "description": "",
      "lat": 45.4389256,
      "long": 4.3881229,
      "active": true,
      "createdAt": "2023-01-13T07:45:44.099Z",
      "type": null
    },
    {
      "id": 163,
      "nom": "MONOP BOURSE",
      "adresse": "4 Rue de la Bourse",
      "code_postal": "75002",
      "ville": "Paris",
      "description": "",
      "lat": 48.8695651,
      "long": 2.339943,
      "active": true,
      "createdAt": "2023-01-13T07:45:44.104Z",
      "type": null
    },
    {
      "id": 164,
      "nom": "MONOP BOULAINVILLIERS",
      "adresse": "7 Rue de Boulainvilliers",
      "code_postal": "75016",
      "ville": "Paris",
      "description": "",
      "lat": 48.8518101,
      "long": 2.2773441,
      "active": true,
      "createdAt": "2023-01-13T07:45:44.110Z",
      "type": null
    },
    {
      "id": 165,
      "nom": "MONOP LOUISE MICHEL LEVALLOIS",
      "adresse": "41-43 Rue Louise Michel",
      "code_postal": "92300",
      "ville": "Levallois-Perret",
      "description": "",
      "lat": 48.889018,
      "long": 2.287987,
      "active": true,
      "createdAt": "2023-01-13T07:45:44.115Z",
      "type": null
    },
    {
      "id": 167,
      "nom": "MONOP GARE ST LAZARE",
      "adresse": "13 Rue d'Amsterdam",
      "code_postal": "75008",
      "ville": "PARIS",
      "description": "",
      "lat": 48.8768,
      "long": 2.32507,
      "active": true,
      "createdAt": "2023-01-13T07:45:44.128Z",
      "type": null
    },
    {
      "id": 168,
      "nom": "MONOP RUE LAPPE",
      "adresse": "9 Rue de la Roquette",
      "code_postal": "75011",
      "ville": "PARIS",
      "description": "",
      "lat": 48.8540785,
      "long": 2.3708946,
      "active": true,
      "createdAt": "2023-01-13T07:45:44.133Z",
      "type": null
    },
    {
      "id": 169,
      "nom": "MONOP PREFECTURE NANTERRE",
      "adresse": "16 Terr. de l'Arche",
      "code_postal": "92000",
      "ville": "Nanterre",
      "description": "",
      "lat": 48.8973991,
      "long": 2.2213235,
      "active": true,
      "createdAt": "2023-01-13T07:45:44.139Z",
      "type": null
    },
    {
      "id": 170,
      "nom": "MONOP FAUBOURG MONTMARTRE",
      "adresse": "16 Rue du Faubourg Montmartre",
      "code_postal": "75009",
      "ville": "Paris",
      "description": "",
      "lat": 48.8728457,
      "long": 2.3432122,
      "active": true,
      "createdAt": "2023-01-13T07:45:44.148Z",
      "type": null
    },
    {
      "id": 171,
      "nom": "MONOP SUFFREN",
      "adresse": "128 Av. de Suffren",
      "code_postal": "75015",
      "ville": "Paris",
      "description": "",
      "lat": 48.8481389,
      "long": 2.3054052,
      "active": true,
      "createdAt": "2023-01-13T07:45:44.155Z",
      "type": null
    },
    {
      "id": 172,
      "nom": "MONOP AIX CHABRIER",
      "adresse": "13 Rue Chabrier",
      "code_postal": "13100",
      "ville": "Aix-en-Provence",
      "description": "",
      "lat": 43.52947148,
      "long": 5.44912599,
      "active": true,
      "createdAt": "2023-01-13T07:45:44.161Z",
      "type": null
    },
    {
      "id": 173,
      "nom": "MONOP CHATEAU BOULOGNE",
      "adresse": "44 Bd Jean Jaurès",
      "code_postal": "92100",
      "ville": "BOULOGNE BILLANCOURT",
      "description": "",
      "lat": 48.83581161,
      "long": 2.24228144,
      "active": true,
      "createdAt": "2023-01-13T07:45:44.167Z",
      "type": null
    },
    {
      "id": 174,
      "nom": "MONOP RUE JACQUIN REIMS",
      "adresse": "7 Rue Dr Jacquin",
      "code_postal": "51100",
      "ville": "Reims",
      "description": "",
      "lat": 49.2569517,
      "long": 4.0317574,
      "active": true,
      "createdAt": "2023-01-13T07:45:44.173Z",
      "type": null
    },
    {
      "id": 175,
      "nom": "MONOP FAUBOURG DE PIERRE",
      "adresse": "22 Rue du Faubourg-de-Pierre",
      "code_postal": "67000",
      "ville": "Strasbourg",
      "description": "",
      "lat": 48.58804703,
      "long": 7.74594784,
      "active": true,
      "createdAt": "2023-01-13T07:45:44.177Z",
      "type": null
    },
    {
      "id": 176,
      "nom": "MONOP EXELMANS",
      "adresse": "148 Av. de Versailles",
      "code_postal": "75016",
      "ville": "Paris",
      "description": "",
      "lat": 48.84137,
      "long": 2.2659205,
      "active": true,
      "createdAt": "2023-01-13T07:45:44.181Z",
      "type": null
    },
    {
      "id": 177,
      "nom": "MONOP PASTEUR",
      "adresse": "8 Av. Pasteur",
      "code_postal": "01333",
      "ville": "Luxembourg",
      "description": "",
      "lat": 49.6184532,
      "long": 6.1238997,
      "active": true,
      "createdAt": "2023-01-13T07:45:44.185Z",
      "type": null
    },
    {
      "id": 178,
      "nom": "MONOP CHIMAY",
      "adresse": "14 Rue Chimay",
      "code_postal": "01333",
      "ville": "Luxembourg",
      "description": "",
      "lat": 49.6096689,
      "long": 6.129614,
      "active": true,
      "createdAt": "2023-01-13T07:45:44.190Z",
      "type": null
    },
    {
      "id": 179,
      "nom": "MONOP LIBERTY PLAZA",
      "adresse": "12-18 Rue Joseph Junck",
      "code_postal": "01839",
      "ville": "Luxembourg",
      "description": "",
      "lat": 49.60036469,
      "long": 6.13254261,
      "active": true,
      "createdAt": "2023-01-13T07:45:44.195Z",
      "type": null
    },
    {
      "id": 180,
      "nom": "MONOP TOULOUSE MATABIAU",
      "adresse": "46 Rue Matabiau",
      "code_postal": "31000",
      "ville": "Toulouse",
      "description": "",
      "lat": 43.611599,
      "long": 1.4480463,
      "active": true,
      "createdAt": "2023-01-13T07:45:44.199Z",
      "type": null
    },
    {
      "id": 181,
      "nom": "MONOP NICE ST ROCH",
      "adresse": "Pl. Saint-Roch",
      "code_postal": "06000",
      "ville": "Nice",
      "description": "",
      "lat": 43.711925,
      "long": 7.2924446,
      "active": true,
      "createdAt": "2023-01-13T07:45:44.203Z",
      "type": null
    },
    {
      "id": 182,
      "nom": "MONOP EDOUARD HERRIOT",
      "adresse": "18-28 Rue du Président Édouard Herriot",
      "code_postal": "69001",
      "ville": "Lyon",
      "description": "",
      "lat": 45.76621246,
      "long": 4.83436966,
      "active": true,
      "createdAt": "2023-01-13T07:45:44.207Z",
      "type": null
    },
    {
      "id": 183,
      "nom": "MONOP BORDEAUX STE CATHERINE",
      "adresse": "Centre commercial Sainte-Catherine face à la Fnac, 51 Rue Sainte-Catherine",
      "code_postal": "33000",
      "ville": "Bordeaux",
      "description": "",
      "lat": 44.8400505,
      "long": -0.5742649,
      "active": true,
      "createdAt": "2023-01-13T07:45:44.211Z",
      "type": null
    },
    {
      "id": 184,
      "nom": "MONOP LYON BELLECOUR",
      "adresse": "19 Pl. Bellecour",
      "code_postal": "69002",
      "ville": "Lyon",
      "description": "",
      "lat": 45.75689073,
      "long": 4.8338495,
      "active": true,
      "createdAt": "2023-01-13T07:45:44.217Z",
      "type": null
    },
    {
      "id": 185,
      "nom": "MONOP CLICHY EQUINOX",
      "adresse": "19-23 All. de l'Europe",
      "code_postal": "92110",
      "ville": "Clichy",
      "description": "",
      "lat": 48.9118215,
      "long": 2.3103011,
      "active": true,
      "createdAt": "2023-01-13T07:45:44.223Z",
      "type": null
    },
    {
      "id": 186,
      "nom": "MONOP MONTAUBAN",
      "adresse": "12 Rue de la République",
      "code_postal": "82000",
      "ville": "Montauban",
      "description": "",
      "lat": 44.0185225,
      "long": 1.3512064,
      "active": true,
      "createdAt": "2023-01-13T07:45:44.227Z",
      "type": null
    },
    {
      "id": 187,
      "nom": "MONOP DUBLIN",
      "adresse": "5 place De Dublin",
      "code_postal": "75008",
      "ville": "Paris",
      "description": "",
      "lat": 49.0095972,
      "long": 2.5614106,
      "active": true,
      "createdAt": "2023-01-13T07:45:44.238Z",
      "type": null
    },
    {
      "id": 188,
      "nom": "MONOP STE CROIX DE LA BRETONNE",
      "adresse": "22 Rue Sainte-Croix de la Bretonnerie",
      "code_postal": "75004",
      "ville": "Paris",
      "description": "",
      "lat": 48.8583047,
      "long": 2.3560229,
      "active": true,
      "createdAt": "2023-01-13T07:45:44.245Z",
      "type": null
    },
    {
      "id": 189,
      "nom": "MONOP LOUIS BLANC",
      "adresse": "22 Rue Louis Blanc",
      "code_postal": "75010",
      "ville": "PARIS",
      "description": "",
      "lat": 48.8805116,
      "long": 2.3663632,
      "active": true,
      "createdAt": "2023-01-13T07:45:44.249Z",
      "type": null
    },
    {
      "id": 190,
      "nom": "MONOP CHALONS EN CHAMPAGNE",
      "adresse": "50 Pl. de la République",
      "code_postal": "51000",
      "ville": "Châlons-en-Champagne",
      "description": "",
      "lat": 48.9549124,
      "long": 4.3633181,
      "active": true,
      "createdAt": "2023-01-13T07:45:44.254Z",
      "type": null
    },
    {
      "id": 191,
      "nom": "MONOP NICE MASSENA",
      "adresse": "15 Pl. Massena",
      "code_postal": "6000",
      "ville": "Nice",
      "description": "",
      "lat": 43.69748351,
      "long": 7.27010736,
      "active": true,
      "createdAt": "2023-01-13T07:45:44.259Z",
      "type": null
    },
    {
      "id": 192,
      "nom": "MONOP CANNES HOCHE",
      "adresse": "32 Rue Hoche",
      "code_postal": "6400",
      "ville": "CANNES",
      "description": "",
      "lat": 43.5531088,
      "long": 7.0187543,
      "active": true,
      "createdAt": "2023-01-13T07:45:44.268Z",
      "type": null
    },
    {
      "id": 193,
      "nom": "MONOP RUEIL DOUMER",
      "adresse": "38 Av. Paul Doumer",
      "code_postal": "92500",
      "ville": "Rueil-Malmaison",
      "description": "",
      "lat": 48.8831531,
      "long": 2.1892824,
      "active": true,
      "createdAt": "2023-01-13T07:45:44.280Z",
      "type": null
    },
    {
      "id": 194,
      "nom": "MONOP BEAUMARCHAIS",
      "adresse": "48 Rue Saint-Sébastien",
      "code_postal": "75011",
      "ville": "PARIS",
      "description": "",
      "lat": 48.8617262,
      "long": 2.3716427,
      "active": true,
      "createdAt": "2023-01-13T07:45:44.285Z",
      "type": null
    },
    {
      "id": 195,
      "nom": "MONOP HAUDRIETTES PARIS",
      "adresse": "5 Rue des Haudriettes",
      "code_postal": "75003",
      "ville": "PARIS",
      "description": "",
      "lat": 48.86151818,
      "long": 2.3574941,
      "active": true,
      "createdAt": "2023-01-13T07:45:44.290Z",
      "type": null
    },
    {
      "id": 196,
      "nom": "MONOP FRANZ LISZT PARIS",
      "adresse": "118 Rue La Fayette",
      "code_postal": "75010",
      "ville": "PARIS",
      "description": "",
      "lat": 48.877975,
      "long": 2.3522888,
      "active": true,
      "createdAt": "2023-01-13T07:45:44.295Z",
      "type": null
    },
    {
      "id": 197,
      "nom": "MONOP ARAGO",
      "adresse": "23 Bis Bd Arago",
      "code_postal": "75013",
      "ville": "PARIS",
      "description": "",
      "lat": 48.8357368,
      "long": 2.3492865,
      "active": true,
      "createdAt": "2023-01-13T07:45:44.301Z",
      "type": null
    },
    {
      "id": 198,
      "nom": "MONOP MEAUX",
      "adresse": "30-32 Cr Raoult",
      "code_postal": "77100",
      "ville": "Meaux",
      "description": "",
      "lat": 48.95817911,
      "long": 2.88194463,
      "active": true,
      "createdAt": "2023-01-13T07:45:44.306Z",
      "type": null
    },
    {
      "id": 199,
      "nom": "MONOP MAISON BLANCHE",
      "adresse": "86 Av. d'Italie",
      "code_postal": "75013",
      "ville": "PARIS",
      "description": "",
      "lat": 48.8258512,
      "long": 2.3570916,
      "active": true,
      "createdAt": "2023-01-13T07:45:44.310Z",
      "type": null
    },
    {
      "id": 200,
      "nom": "MONOP PARMENTIER",
      "adresse": "89 Rue Oberkampf",
      "code_postal": "75011",
      "ville": "PARIS",
      "description": "",
      "lat": 48.8652769,
      "long": 2.3754365,
      "active": true,
      "createdAt": "2023-01-13T07:45:44.314Z",
      "type": null
    },
    {
      "id": 201,
      "nom": "MONOP MAINE",
      "adresse": "151 Av. du Maine",
      "code_postal": "75014",
      "ville": "PARIS",
      "description": "Fermeture pour travaux",
      "lat": 48.833721,
      "long": 2.3247726,
      "active": true,
      "createdAt": "2023-01-13T07:45:44.318Z",
      "type": null
    },
    {
      "id": 202,
      "nom": "MONOP GALILEE",
      "adresse": "41 Rue Galilée",
      "code_postal": "75016",
      "ville": "PARIS",
      "description": "",
      "lat": 48.87028202,
      "long": 2.29662184,
      "active": true,
      "createdAt": "2023-01-13T07:45:44.322Z",
      "type": null
    },
    {
      "id": 203,
      "nom": "MONOP TROCADERO",
      "adresse": "89 Av. Kléber",
      "code_postal": "75116",
      "ville": "PARIS",
      "description": "",
      "lat": 48.8640576,
      "long": 2.2882592,
      "active": true,
      "createdAt": "2023-01-13T07:45:44.334Z",
      "type": null
    },
    {
      "id": 204,
      "nom": "MONOP BERRI",
      "adresse": "50 Rue de Berri",
      "code_postal": "75008",
      "ville": "PARIS",
      "description": "",
      "lat": 48.87473407,
      "long": 2.30848652,
      "active": true,
      "createdAt": "2023-01-13T07:45:44.339Z",
      "type": null
    },
    {
      "id": 205,
      "nom": "MONOP AVIA NICE PROMENADE 2",
      "adresse": "77 Prom. des Anglais",
      "code_postal": "6000",
      "ville": "Nice",
      "description": "",
      "lat": 43.69239,
      "long": 7.250222,
      "active": true,
      "createdAt": "2023-01-13T07:45:44.345Z",
      "type": null
    },
    {
      "id": 206,
      "nom": "MONOP BOULOGNE J BAPT CLEMENT",
      "adresse": "104 Av. Jean Baptiste Clement",
      "code_postal": "92100",
      "ville": "BOULOGNE BILLANCOURT",
      "description": "",
      "lat": 48.84440613,
      "long": 2.23377109,
      "active": true,
      "createdAt": "2023-01-13T07:45:44.349Z",
      "type": null
    },
    {
      "id": 207,
      "nom": "MONOP SERRIS",
      "adresse": "13 Pl. d'Ariane Z.A.C",
      "code_postal": "77700",
      "ville": "Serris",
      "description": "",
      "lat": 48.85595598,
      "long": 2.776503,
      "active": true,
      "createdAt": "2023-01-13T07:45:44.353Z",
      "type": null
    },
    {
      "id": 208,
      "nom": "MONOP TAITBOUT",
      "adresse": "9 Rue La Fayette",
      "code_postal": "75009",
      "ville": "Paris",
      "description": "",
      "lat": 48.87367201,
      "long": 2.33509898,
      "active": true,
      "createdAt": "2023-01-13T07:45:44.358Z",
      "type": null
    },
    {
      "id": 209,
      "nom": "MONOP VILLIERS",
      "adresse": "48 Av. de Villiers",
      "code_postal": "75017",
      "ville": "Paris",
      "description": "",
      "lat": 48.88331502,
      "long": 2.30784003,
      "active": true,
      "createdAt": "2023-01-13T07:45:44.363Z",
      "type": null
    },
    {
      "id": 210,
      "nom": "MONOP EDIMBOURG",
      "adresse": "3 Rue d'Édimbourg",
      "code_postal": "75008",
      "ville": "Paris",
      "description": "",
      "lat": 48.87939698,
      "long": 2.32147403,
      "active": true,
      "createdAt": "2023-01-13T07:45:44.367Z",
      "type": null
    },
    {
      "id": 211,
      "nom": "MONOP SAINT BERNARD",
      "adresse": "5 Bd Saint-Germain",
      "code_postal": "75005",
      "ville": "Paris",
      "description": "",
      "lat": 48.8492733,
      "long": 2.3552126,
      "active": true,
      "createdAt": "2023-01-13T07:45:44.371Z",
      "type": null
    },
    {
      "id": 212,
      "nom": "MONOP CANNES MARCHE",
      "adresse": "3 Rue du Marché Forville",
      "code_postal": "6400",
      "ville": "CANNES",
      "description": "",
      "lat": 43.55200195,
      "long": 7.01229334,
      "active": true,
      "createdAt": "2023-01-13T07:45:44.375Z",
      "type": null
    },
    {
      "id": 213,
      "nom": "MONOP SAINT DOMINIQUE",
      "adresse": "102 Rue Saint-Dominique",
      "code_postal": "75007",
      "ville": "Paris",
      "description": "",
      "lat": 48.85957718,
      "long": 2.30681252,
      "active": true,
      "createdAt": "2023-01-13T07:45:44.379Z",
      "type": null
    },
    {
      "id": 214,
      "nom": "MONOP ANNECY GARE",
      "adresse": "17 bis Rue de la Gare",
      "code_postal": "74000",
      "ville": "Annecy",
      "description": "",
      "lat": 45.900208,
      "long": 6.12138,
      "active": true,
      "createdAt": "2023-01-13T07:45:44.383Z",
      "type": null
    },
    {
      "id": 215,
      "nom": "MONOP STANISLAS RASPAIL",
      "adresse": "124-126 Bd Raspail",
      "code_postal": "75006",
      "ville": "Paris",
      "description": "",
      "lat": 48.8405618,
      "long": 2.3301216,
      "active": true,
      "createdAt": "2023-01-13T07:45:44.387Z",
      "type": null
    },
    {
      "id": 216,
      "nom": "MONOP MAIRIE ST MAUR",
      "adresse": "20-22 Av. Emile Zola",
      "code_postal": "94100",
      "ville": "Saint-Maur-des-Fossés",
      "description": "",
      "lat": 48.80147552,
      "long": 2.48442912,
      "active": true,
      "createdAt": "2023-01-13T07:45:44.392Z",
      "type": null
    },
    {
      "id": 331,
      "nom": "MATCH MONS",
      "adresse": "Grand Rue 67",
      "code_postal": "7000",
      "ville": "Mons",
      "description": "",
      "lat": 50.45094155,
      "long": 3.94951997,
      "active": true,
      "createdAt": "2023-01-13T07:45:45.165Z",
      "type": null
    },
    {
      "id": 217,
      "nom": "MONOP BOULOGNE BIR HAKEIM",
      "adresse": "6 Pl. de Bir Hakeim",
      "code_postal": "92100",
      "ville": "Boulogne-Billancourt",
      "description": "",
      "lat": 48.83025742,
      "long": 2.23953342,
      "active": true,
      "createdAt": "2023-01-13T07:45:44.398Z",
      "type": null
    },
    {
      "id": 218,
      "nom": "MONOP CONFLANS STE HONORINE",
      "adresse": "49 Rue Maurice Berteaux",
      "code_postal": "78700",
      "ville": "Conflans-Sainte-Honorine",
      "description": "",
      "lat": 48.99268723,
      "long": 2.09317875,
      "active": true,
      "createdAt": "2023-01-13T07:45:44.402Z",
      "type": null
    },
    {
      "id": 220,
      "nom": "MONO LYON GUILLOTIERE",
      "adresse": "305-307 Rue Garibaldi",
      "code_postal": "69007",
      "ville": "LYON",
      "description": "",
      "lat": 45.7548613,
      "long": 4.8531887,
      "active": true,
      "createdAt": "2023-01-13T07:45:44.411Z",
      "type": null
    },
    {
      "id": 221,
      "nom": "MONO LES 2 LIONS TOURS",
      "adresse": "Av. Marcel Mérieux",
      "code_postal": "37200",
      "ville": "Tours",
      "description": "Fermeture pour travaux jusqu'au début Mai 2023",
      "lat": 47.36558914,
      "long": 0.67943931,
      "active": true,
      "createdAt": "2023-01-13T07:45:44.418Z",
      "type": null
    },
    {
      "id": 222,
      "nom": "MONO GAMBETTA",
      "adresse": "22-24 Bd Gambetta",
      "code_postal": "92130",
      "ville": "Issy-les-Moulineaux",
      "description": "",
      "lat": 48.82754517,
      "long": 2.27622652,
      "active": true,
      "createdAt": "2023-01-13T07:45:44.422Z",
      "type": null
    },
    {
      "id": 223,
      "nom": "MONO NANCY ST SEBASTIEN",
      "adresse": "Rue des Ponts",
      "code_postal": "54000",
      "ville": "Nancy",
      "description": "",
      "lat": 48.6891141,
      "long": 6.1813516,
      "active": true,
      "createdAt": "2023-01-13T07:45:44.426Z",
      "type": null
    },
    {
      "id": 224,
      "nom": "MONO LILLE TANNEURS",
      "adresse": "80 Rue Pierre Mauroy",
      "code_postal": "59800",
      "ville": "Lille",
      "description": "",
      "lat": 50.6354075,
      "long": 3.0667659,
      "active": true,
      "createdAt": "2023-01-13T07:45:44.430Z",
      "type": null
    },
    {
      "id": 225,
      "nom": "MONO MEUDON",
      "adresse": "41 Rue de la République",
      "code_postal": "92190",
      "ville": "Meudon",
      "description": "",
      "lat": 48.80793381,
      "long": 2.23604822,
      "active": true,
      "createdAt": "2023-01-13T07:45:44.436Z",
      "type": null
    },
    {
      "id": 226,
      "nom": "MONO TOULOUSE",
      "adresse": "39 Rue d'Alsace Lorraine",
      "code_postal": "31000",
      "ville": "Toulouse",
      "description": "",
      "lat": 43.60339355,
      "long": 1.44566381,
      "active": true,
      "createdAt": "2023-01-13T07:45:44.441Z",
      "type": null
    },
    {
      "id": 227,
      "nom": "MONO AUXERRE",
      "adresse": "10 Pl. Charles Surugue",
      "code_postal": "89000",
      "ville": "Auxerre",
      "description": "",
      "lat": 47.79485703,
      "long": 3.56938553,
      "active": true,
      "createdAt": "2023-01-13T07:45:44.446Z",
      "type": null
    },
    {
      "id": 228,
      "nom": "MONOPRIX DIMAX",
      "adresse": "70-72 Rue du Faubourg du Temple",
      "code_postal": "75011",
      "ville": "PARIS",
      "description": "",
      "lat": 48.8720452,
      "long": 2.376876,
      "active": true,
      "createdAt": "2023-01-13T07:45:44.450Z",
      "type": null
    },
    {
      "id": 229,
      "nom": "MONO DAUMESNIL",
      "adresse": "215 Rue de Charenton",
      "code_postal": "75012",
      "ville": "PARIS",
      "description": "",
      "lat": 48.8384669,
      "long": 2.3899467,
      "active": true,
      "createdAt": "2023-01-13T07:45:44.455Z",
      "type": null
    },
    {
      "id": 230,
      "nom": "MONO DAGUERRE",
      "adresse": "8 Av. du Général Leclerc",
      "code_postal": "75014",
      "ville": "PARIS",
      "description": "",
      "lat": 48.8332568,
      "long": 2.331206,
      "active": true,
      "createdAt": "2023-01-13T07:45:44.459Z",
      "type": null
    },
    {
      "id": 231,
      "nom": "MONO CONVENTION",
      "adresse": "105 Rue de la Convention",
      "code_postal": "75015",
      "ville": "PARIS",
      "description": "",
      "lat": 48.8413913,
      "long": 2.2875093,
      "active": true,
      "createdAt": "2023-01-13T07:45:44.464Z",
      "type": null
    },
    {
      "id": 232,
      "nom": "MONO BELVEDERE",
      "adresse": "118-130 Av. Jean Jaurès",
      "code_postal": "75019",
      "ville": "PARIS",
      "description": "",
      "lat": 48.8860129,
      "long": 2.3833794,
      "active": true,
      "createdAt": "2023-01-13T07:45:44.468Z",
      "type": null
    },
    {
      "id": 233,
      "nom": "MONO BRUYERES",
      "adresse": "31 Rue Edith Cavell",
      "code_postal": "92400",
      "ville": "Courbevoie",
      "description": "",
      "lat": 48.9036408,
      "long": 2.2677447,
      "active": true,
      "createdAt": "2023-01-13T07:45:44.476Z",
      "type": null
    },
    {
      "id": 234,
      "nom": "MONO VIGNERONS VINCENNES",
      "adresse": "60-62 Av. de Paris",
      "code_postal": "94300",
      "ville": "Vincennes",
      "description": "",
      "lat": 48.84535099,
      "long": 2.43078402,
      "active": true,
      "createdAt": "2023-01-13T07:45:44.480Z",
      "type": null
    },
    {
      "id": 235,
      "nom": "MONO ORDENER",
      "adresse": "20 Rue Vauvenargues",
      "code_postal": "75018",
      "ville": "PARIS",
      "description": "",
      "lat": 48.8933373,
      "long": 2.3335483,
      "active": true,
      "createdAt": "2023-01-13T07:45:44.485Z",
      "type": null
    },
    {
      "id": 236,
      "nom": "MONO PASSY PN",
      "adresse": "53 Rue de Passy",
      "code_postal": "75016",
      "ville": "PARIS",
      "description": "",
      "lat": 48.85750556,
      "long": 2.27956103,
      "active": true,
      "createdAt": "2023-01-13T07:45:44.489Z",
      "type": null
    },
    {
      "id": 237,
      "nom": "MONO LECOURBE",
      "adresse": "76 Rue Lecourbe",
      "code_postal": "75015",
      "ville": "PARIS",
      "description": "",
      "lat": 48.8441051,
      "long": 2.305187,
      "active": true,
      "createdAt": "2023-01-13T07:45:44.494Z",
      "type": null
    },
    {
      "id": 238,
      "nom": "MONO ITALIE",
      "adresse": "83 Av. d'Italie",
      "code_postal": "75013",
      "ville": "PARIS",
      "description": "",
      "lat": 48.8243985,
      "long": 2.3583104,
      "active": true,
      "createdAt": "2023-01-13T07:45:44.499Z",
      "type": null
    },
    {
      "id": 239,
      "nom": "MONO PICPUS",
      "adresse": "114 Rue de Picpus",
      "code_postal": "75012",
      "ville": "PARIS",
      "description": "",
      "lat": 48.8382138,
      "long": 2.4014739,
      "active": true,
      "createdAt": "2023-01-13T07:45:44.504Z",
      "type": null
    },
    {
      "id": 240,
      "nom": "MONO TROYES ZOLA",
      "adresse": "6 Rue Louis Ulbach",
      "code_postal": "10000",
      "ville": "Troyes",
      "description": "",
      "lat": 48.29613319,
      "long": 4.07513619,
      "active": true,
      "createdAt": "2023-01-13T07:45:44.508Z",
      "type": null
    },
    {
      "id": 241,
      "nom": "MONO RUEIL MALMAISON",
      "adresse": "46-52 Rue du Château",
      "code_postal": "92500",
      "ville": "Rueil-Malmaison",
      "description": "",
      "lat": 48.87381189,
      "long": 2.18108332,
      "active": true,
      "createdAt": "2023-01-13T07:45:44.513Z",
      "type": null
    },
    {
      "id": 242,
      "nom": "MONO MANTES LA JOLIE",
      "adresse": "27 Rue Gambetta",
      "code_postal": "78200",
      "ville": "Mantes la jolie",
      "description": "",
      "lat": 48.989328,
      "long": 1.7159,
      "active": true,
      "createdAt": "2023-01-13T07:45:44.517Z",
      "type": null
    },
    {
      "id": 243,
      "nom": "MONO ROMAINVILLE",
      "adresse": "26 Av. Paul Vaillant Couturier",
      "code_postal": "93230",
      "ville": "Romainville",
      "description": "",
      "lat": 48.885184,
      "long": 2.43499,
      "active": true,
      "createdAt": "2023-01-13T07:45:44.522Z",
      "type": null
    },
    {
      "id": 244,
      "nom": "MONO SURESNES",
      "adresse": "6 Rue des Bourets",
      "code_postal": "92150",
      "ville": "Suresnes",
      "description": "",
      "lat": 48.8683892,
      "long": 2.2273598,
      "active": true,
      "createdAt": "2023-01-13T07:45:44.527Z",
      "type": null
    },
    {
      "id": 245,
      "nom": "MONO BELLES FEUILLES",
      "adresse": "24 Rue des Belles Feuilles",
      "code_postal": "75116",
      "ville": "PARIS",
      "description": "",
      "lat": 48.86673355,
      "long": 2.28215194,
      "active": true,
      "createdAt": "2023-01-13T07:45:44.550Z",
      "type": null
    },
    {
      "id": 246,
      "nom": "MONO LA CIOTAT",
      "adresse": "Av. Fernand Gassion",
      "code_postal": "13600",
      "ville": "La Ciotat",
      "description": "",
      "lat": 43.18143082,
      "long": 5.60588932,
      "active": true,
      "createdAt": "2023-01-13T07:45:44.556Z",
      "type": null
    },
    {
      "id": 247,
      "nom": "MONO CHATOU",
      "adresse": "3 Rue de la Paroisse",
      "code_postal": "78400",
      "ville": "Chatou",
      "description": "",
      "lat": 48.88964462,
      "long": 2.15956783,
      "active": true,
      "createdAt": "2023-01-13T07:45:44.561Z",
      "type": null
    },
    {
      "id": 248,
      "nom": "MONO PORTE DE MONTMARTRE",
      "adresse": "70 Rue Charles Schmidt",
      "code_postal": "93400",
      "ville": "Saint-Ouen",
      "description": "",
      "lat": 48.90202713,
      "long": 2.33459496,
      "active": true,
      "createdAt": "2023-01-13T07:45:44.586Z",
      "type": null
    },
    {
      "id": 249,
      "nom": "MONO ISSOIRE",
      "adresse": "Rue d'Ambert",
      "code_postal": "63500",
      "ville": "Issoire",
      "description": "",
      "lat": 45.5458163,
      "long": 3.2442771,
      "active": true,
      "createdAt": "2023-01-13T07:45:44.593Z",
      "type": null
    },
    {
      "id": 250,
      "nom": "MONOPRIX ARLES",
      "adresse": "Boulevard Emile Combes, Pl. Lamartine",
      "code_postal": "13200",
      "ville": "Arles",
      "description": "",
      "lat": 43.68004808,
      "long": 4.63382096,
      "active": true,
      "createdAt": "2023-01-13T07:45:44.604Z",
      "type": null
    },
    {
      "id": 251,
      "nom": "MONO NICE CIMIEZ",
      "adresse": "8 Av. de Flirey",
      "code_postal": "06000",
      "ville": "Nice",
      "description": "",
      "lat": 43.723229,
      "long": 7.2757719,
      "active": true,
      "createdAt": "2023-01-13T07:45:44.609Z",
      "type": null
    },
    {
      "id": 253,
      "nom": "MONO ANNEMASSE",
      "adresse": "10 Rue de la Gare",
      "code_postal": "74100",
      "ville": "Annemasse",
      "description": "",
      "lat": 46.19419611,
      "long": 6.23405744,
      "active": true,
      "createdAt": "2023-01-13T07:45:44.617Z",
      "type": null
    },
    {
      "id": 254,
      "nom": "MONO DIJON",
      "adresse": "17 Rue Bossuet",
      "code_postal": "21000",
      "ville": "Dijon",
      "description": "",
      "lat": 47.3214622,
      "long": 5.0379438,
      "active": true,
      "createdAt": "2023-01-13T07:45:44.623Z",
      "type": null
    },
    {
      "id": 255,
      "nom": "MONOPRIX Luxembourg FORT BOURBON",
      "adresse": "11 Rue du Fort Bourbon",
      "code_postal": "01249",
      "ville": "Luxembourg",
      "description": "",
      "lat": 49.60365429,
      "long": 6.13239761,
      "active": true,
      "createdAt": "2023-01-13T07:45:44.628Z",
      "type": null
    },
    {
      "id": 256,
      "nom": "MONOPRIX GUILLAUME II",
      "adresse": "2 Pl. Guillaume II",
      "code_postal": "01648",
      "ville": "Luxembourg",
      "description": "",
      "lat": 49.6110652,
      "long": 6.1314246,
      "active": true,
      "createdAt": "2023-01-13T07:45:44.632Z",
      "type": null
    },
    {
      "id": 260,
      "nom": "LERCLERC MEAUX",
      "adresse": "3 Rue Georges Claude",
      "code_postal": "77100",
      "ville": "Meaux",
      "description": "",
      "lat": 48.9585591,
      "long": 2.917403,
      "active": true,
      "createdAt": "2023-01-13T07:45:44.651Z",
      "type": null
    },
    {
      "id": 262,
      "nom": "E.Leclerc Gien",
      "adresse": "17 Rue de la Bosserie",
      "code_postal": "45500",
      "ville": "Gien",
      "description": "",
      "lat": 47.7052936,
      "long": 2.6355907,
      "active": true,
      "createdAt": "2023-01-13T07:45:44.661Z",
      "type": null
    },
    {
      "id": 257,
      "nom": "GARNETT BURGER",
      "adresse": "85 Rue Cardinet",
      "code_postal": "75017",
      "ville": "Paris",
      "description": "",
      "lat": 48.88432693,
      "long": 2.30932832,
      "active": true,
      "createdAt": "2023-01-13T07:45:44.637Z",
      "type": {
        "id": 9,
        "name": "garnett-burger",
        "createdAt": "2022-12-23T14:41:45.267Z",
        "publishedAt": "2022-12-23T14:41:47.502Z",
        "logo": null
      }
    },
    {
      "id": 259,
      "nom": "PARC ASTERIX",
      "adresse": "Parc Astérix",
      "code_postal": "60128",
      "ville": "Plailly",
      "description": "",
      "lat": 49.135143,
      "long": 2.565823,
      "active": true,
      "createdAt": "2023-01-13T07:45:44.647Z",
      "type": {
        "id": 7,
        "name": "parc-asterix",
        "createdAt": "2022-12-23T14:38:49.018Z",
        "publishedAt": "2022-12-23T14:38:54.241Z",
        "logo": null
      }
    },
    {
      "id": 258,
      "nom": "PATAKOOKY",
      "adresse": "56 Grande Rue",
      "code_postal": "89100",
      "ville": "Sens",
      "description": "",
      "lat": 48.19708633,
      "long": 3.27955,
      "active": true,
      "createdAt": "2023-01-13T07:45:44.643Z",
      "type": {
        "id": 12,
        "name": "patakooky",
        "createdAt": "2022-12-23T14:44:32.290Z",
        "publishedAt": "2022-12-23T14:44:34.324Z",
        "logo": null
      }
    },
    {
      "id": 261,
      "nom": "T'o Bulles",
      "adresse": "3 Rue des Aqueducs",
      "code_postal": "42300",
      "ville": "Roanne",
      "description": "",
      "lat": 46.0398885,
      "long": 4.0701888,
      "active": true,
      "createdAt": "2023-01-13T07:45:44.656Z",
      "type": {
        "id": 11,
        "name": "to-bulles",
        "createdAt": "2022-12-23T14:43:48.539Z",
        "publishedAt": "2022-12-23T14:43:50.862Z",
        "logo": null
      }
    },
    {
      "id": 318,
      "nom": "MATCH FONTAINE",
      "adresse": "Rue de Leernes 2",
      "code_postal": "6140",
      "ville": "Fontaine-l'Évêque",
      "description": "",
      "lat": 50.40746679,
      "long": 4.32529836,
      "active": true,
      "createdAt": "2023-01-13T07:45:45.078Z",
      "type": null
    },
    {
      "id": 319,
      "nom": "MATCH FOREST/VORST",
      "adresse": "Alsembergsesteenweg 171",
      "code_postal": "1190",
      "ville": "Vorst",
      "description": "",
      "lat": 50.82162962,
      "long": 4.34159825,
      "active": true,
      "createdAt": "2023-01-13T07:45:45.085Z",
      "type": null
    },
    {
      "id": 320,
      "nom": "MATCH GEMBLOUX",
      "adresse": "Chaussée de Charleroi 22",
      "code_postal": "5030",
      "ville": "Gembloux",
      "description": "",
      "lat": 50.56840164,
      "long": 4.69046476,
      "active": true,
      "createdAt": "2023-01-13T07:45:45.090Z",
      "type": null
    },
    {
      "id": 321,
      "nom": "MATCH GENT",
      "adresse": "Woodrow Wilsonplein 4",
      "code_postal": "9000",
      "ville": "Gent",
      "description": "",
      "lat": 51.04881462,
      "long": 3.72971884,
      "active": true,
      "createdAt": "2023-01-13T07:45:45.094Z",
      "type": null
    },
    {
      "id": 322,
      "nom": "MATCH GREZ DOICEAU",
      "adresse": "Chaussée de la Libération 47",
      "code_postal": "1390",
      "ville": "Grez-Doiceau",
      "description": "",
      "lat": 50.74126207,
      "long": 4.69038339,
      "active": true,
      "createdAt": "2023-01-13T07:45:45.099Z",
      "type": null
    },
    {
      "id": 323,
      "nom": "MATCH HUY",
      "adresse": "Avenue de Batta 10",
      "code_postal": "4500",
      "ville": "Huy",
      "description": "",
      "lat": 50.52004053,
      "long": 5.23520671,
      "active": true,
      "createdAt": "2023-01-13T07:45:45.104Z",
      "type": null
    },
    {
      "id": 324,
      "nom": "MATCH FOOD & MORE JUMET",
      "adresse": "Rue Hubert Bastin 7",
      "code_postal": "6040",
      "ville": "Charleroi",
      "description": "",
      "lat": 50.45368554,
      "long": 4.42963268,
      "active": true,
      "createdAt": "2023-01-13T07:45:45.109Z",
      "type": null
    },
    {
      "id": 325,
      "nom": "MATCH LEUVEN",
      "adresse": "Bondgenotenlaan 58",
      "code_postal": "3000",
      "ville": "Leuven",
      "description": "",
      "lat": 50.88067437,
      "long": 4.70713825,
      "active": true,
      "createdAt": "2023-01-13T07:45:45.126Z",
      "type": null
    },
    {
      "id": 326,
      "nom": "MATCH LEUZE",
      "adresse": "Rue de Condé 62",
      "code_postal": "7900",
      "ville": "Leuze-en-Hainaut",
      "description": "",
      "lat": 50.5956843,
      "long": 3.61856792,
      "active": true,
      "createdAt": "2023-01-13T07:45:45.135Z",
      "type": null
    },
    {
      "id": 327,
      "nom": "MATCH MARCINELLE",
      "adresse": "Avenue Eugène Mascaux 462",
      "code_postal": "6001",
      "ville": "Charleroi",
      "description": "",
      "lat": 50.38902102,
      "long": 4.43280705,
      "active": true,
      "createdAt": "2023-01-13T07:45:45.143Z",
      "type": null
    },
    {
      "id": 328,
      "nom": "MATCH MECHELEN LAMOT",
      "adresse": "Haverwerf 1",
      "code_postal": "2800",
      "ville": "Mechelen",
      "description": "",
      "lat": 51.02623342,
      "long": 4.4759078,
      "active": true,
      "createdAt": "2023-01-13T07:45:45.147Z",
      "type": null
    },
    {
      "id": 329,
      "nom": "MATCH MERKSEM",
      "adresse": "Maantjessteenweg 143",
      "code_postal": "2170",
      "ville": "Antwerpen",
      "description": "",
      "lat": 51.25552734,
      "long": 4.43768605,
      "active": true,
      "createdAt": "2023-01-13T07:45:45.153Z",
      "type": null
    },
    {
      "id": 330,
      "nom": "MATCH MOMIGNIES",
      "adresse": "Route de Macon 7",
      "code_postal": "6590",
      "ville": "Momignies",
      "description": "",
      "lat": 50.03240656,
      "long": 4.16754589,
      "active": true,
      "createdAt": "2023-01-13T07:45:45.160Z",
      "type": null
    },
    {
      "id": 332,
      "nom": "MATCH MOUSCRON",
      "adresse": "Sint-Paulusdoorgang 18",
      "code_postal": "7700",
      "ville": "Moeskroen",
      "description": "",
      "lat": 50.74198846,
      "long": 3.21397031,
      "active": true,
      "createdAt": "2023-01-13T07:45:45.172Z",
      "type": null
    },
    {
      "id": 333,
      "nom": "MATCH NAMUR",
      "adresse": "Rue des Echasseurs",
      "code_postal": "5000",
      "ville": "Namur",
      "description": "",
      "lat": 50.46327718,
      "long": 4.86631385,
      "active": true,
      "createdAt": "2023-01-13T07:45:45.177Z",
      "type": null
    },
    {
      "id": 334,
      "nom": "MATCH SAINT-GILLES/SINT-GILILIS",
      "adresse": "Waterloosesteenweg 71",
      "code_postal": "1060",
      "ville": "Sint-Gillis",
      "description": "",
      "lat": 50.83077358,
      "long": 4.34427037,
      "active": true,
      "createdAt": "2023-01-13T07:45:45.181Z",
      "type": null
    },
    {
      "id": 335,
      "nom": "MATCH SCHEUT",
      "adresse": "Ninoofsesteenweg 500",
      "code_postal": "1070",
      "ville": "Anderlecht",
      "description": "",
      "lat": 50.84816308,
      "long": 4.30790695,
      "active": true,
      "createdAt": "2023-01-13T07:45:45.186Z",
      "type": null
    },
    {
      "id": 336,
      "nom": "MATCH STOCKEL",
      "adresse": "Kerkstraat 98",
      "code_postal": "1150",
      "ville": "Sint-Pieters-Woluwe",
      "description": "",
      "lat": 50.84185265,
      "long": 4.46351207,
      "active": true,
      "createdAt": "2023-01-13T07:45:45.190Z",
      "type": null
    },
    {
      "id": 337,
      "nom": "MATCH WANFERCÉE BAULET",
      "adresse": "Rue Franklin Roosevelt 8",
      "code_postal": "6224",
      "ville": "Fleurus",
      "description": "",
      "lat": 50.47210768,
      "long": 4.59084354,
      "active": true,
      "createdAt": "2023-01-13T07:45:45.193Z",
      "type": null
    },
    {
      "id": 338,
      "nom": "MATCH WAREMME NORD",
      "adresse": "Place de Gérardmer 58",
      "code_postal": "4300",
      "ville": "Waremme",
      "description": "",
      "lat": 50.69820778,
      "long": 5.26019065,
      "active": true,
      "createdAt": "2023-01-13T07:45:45.197Z",
      "type": null
    },
    {
      "id": 339,
      "nom": "MATCH WAREMME SUD",
      "adresse": "Rue de Huy 70",
      "code_postal": "4300",
      "ville": "Waremme",
      "description": "",
      "lat": 50.69051809,
      "long": 5.24984684,
      "active": true,
      "createdAt": "2023-01-13T07:45:45.201Z",
      "type": null
    },
    {
      "id": 340,
      "nom": "MATCH WÉPION",
      "adresse": "Chaussée de Dinant 760",
      "code_postal": "5100",
      "ville": "Namur",
      "description": "",
      "lat": 50.42877237,
      "long": 4.86628688,
      "active": true,
      "createdAt": "2023-01-13T07:45:45.205Z",
      "type": null
    },
    {
      "id": 341,
      "nom": "MATCH WOLUWE",
      "adresse": "Rue Saint-Lambert 202",
      "code_postal": "1200",
      "ville": "Woluwe-Saint-Lambert",
      "description": "",
      "lat": 50.84958377,
      "long": 4.43621418,
      "active": true,
      "createdAt": "2023-01-13T07:45:45.209Z",
      "type": null
    },
    {
      "id": 342,
      "nom": "MATCH ANDENNE",
      "adresse": "Avenue Roi Albert 17",
      "code_postal": "5300",
      "ville": "Andenne",
      "description": "",
      "lat": 50.49246977,
      "long": 5.09785258,
      "active": true,
      "createdAt": "2023-01-13T07:45:45.214Z",
      "type": null
    },
    {
      "id": 343,
      "nom": "MATCH ATH",
      "adresse": "Chaussée de Bruxelles 62",
      "code_postal": "7800",
      "ville": "Ath",
      "description": "",
      "lat": 50.63200249,
      "long": 3.78914713,
      "active": true,
      "createdAt": "2023-01-13T07:45:45.221Z",
      "type": null
    },
    {
      "id": 344,
      "nom": "MATCH AUVELAIS",
      "adresse": "Rue de Falisolle 4",
      "code_postal": "5060",
      "ville": "Sambreville",
      "description": "",
      "lat": 50.44749705,
      "long": 4.63264592,
      "active": true,
      "createdAt": "2023-01-13T07:45:45.228Z",
      "type": null
    },
    {
      "id": 345,
      "nom": "MATCH BEAUMONT",
      "adresse": "Rue Germain Michiels 46",
      "code_postal": "6500",
      "ville": "Beaumont",
      "description": "",
      "lat": 50.2397174,
      "long": 4.24347849,
      "active": true,
      "createdAt": "2023-01-13T07:45:45.233Z",
      "type": null
    },
    {
      "id": 346,
      "nom": "MATCH BINCHE",
      "adresse": "Rue Zéphirin Fontaine 140",
      "code_postal": "7130",
      "ville": "Binche",
      "description": "",
      "lat": 50.42150829,
      "long": 4.17024909,
      "active": true,
      "createdAt": "2023-01-13T07:45:45.251Z",
      "type": null
    },
    {
      "id": 347,
      "nom": "MATCH BRAINE-L'ALLEUD",
      "adresse": "Avenue de la Belle Province 73",
      "code_postal": "1420",
      "ville": "Braine-l'Alleud",
      "description": "",
      "lat": 50.68725869,
      "long": 4.373873,
      "active": true,
      "createdAt": "2023-01-13T07:45:45.261Z",
      "type": null
    },
    {
      "id": 348,
      "nom": "MATCH BRAINE-LE-COMTE",
      "adresse": "Rue Charles Mahieu 22",
      "code_postal": "7090",
      "ville": "Braine-le-Comte",
      "description": "",
      "lat": 50.60836092,
      "long": 4.13192627,
      "active": true,
      "createdAt": "2023-01-13T07:45:45.271Z",
      "type": null
    },
    {
      "id": 349,
      "nom": "MATCH BURDINNE",
      "adresse": "Chaussée de Namur 3",
      "code_postal": "4210",
      "ville": "Burdinne",
      "description": "",
      "lat": 50.57416313,
      "long": 5.05475283,
      "active": true,
      "createdAt": "2023-01-13T07:45:45.275Z",
      "type": null
    },
    {
      "id": 350,
      "nom": "MATCH CHATELET PERRON",
      "adresse": "Place du Perron 8",
      "code_postal": "6200",
      "ville": "Châtelet",
      "description": "",
      "lat": 50.40454061,
      "long": 4.52178298,
      "active": true,
      "createdAt": "2023-01-13T07:45:45.283Z",
      "type": null
    },
    {
      "id": 351,
      "nom": "MATCH CHIMAY",
      "adresse": "Chaussée de Mons 17",
      "code_postal": "6460",
      "ville": "Chimay",
      "description": "",
      "lat": 50.05147122,
      "long": 4.30971016,
      "active": true,
      "createdAt": "2023-01-13T07:45:45.295Z",
      "type": null
    },
    {
      "id": 352,
      "nom": "MATCH COUVIN",
      "adresse": "Rue de la Gare 15",
      "code_postal": "5660",
      "ville": "Couvin",
      "description": "",
      "lat": 50.05486908,
      "long": 4.49187474,
      "active": true,
      "createdAt": "2023-01-13T07:45:45.302Z",
      "type": null
    },
    {
      "id": 353,
      "nom": "MATCH DEURNE",
      "adresse": "Ruggeveldlaan 601",
      "code_postal": "2100",
      "ville": "Antwerpen",
      "description": "",
      "lat": 51.22340726,
      "long": 4.47858912,
      "active": true,
      "createdAt": "2023-01-13T07:45:45.314Z",
      "type": null
    },
    {
      "id": 354,
      "nom": "MATCH EDEGEM",
      "adresse": "Hovestraat 54-60",
      "code_postal": "2650",
      "ville": "Edegem",
      "description": "",
      "lat": 51.15634878,
      "long": 4.4487597,
      "active": true,
      "createdAt": "2023-01-13T07:45:45.326Z",
      "type": null
    },
    {
      "id": 355,
      "nom": "MATCH FLEURUS",
      "adresse": "Chaussée de Charleroi 248",
      "code_postal": "6220",
      "ville": "Fleurus",
      "description": "",
      "lat": 50.4818865,
      "long": 4.55056909,
      "active": true,
      "createdAt": "2023-01-13T07:45:45.332Z",
      "type": null
    },
    {
      "id": 356,
      "nom": "MATCH FLORENNES",
      "adresse": "Rue Henry de Rohan-Chabot 17",
      "code_postal": "5620",
      "ville": "Florennes",
      "description": "",
      "lat": 50.24923882,
      "long": 4.60784862,
      "active": true,
      "createdAt": "2023-01-13T07:45:45.338Z",
      "type": null
    },
    {
      "id": 357,
      "nom": "CORA ANDERLECHT",
      "adresse": "Drève Olympique, 15",
      "code_postal": "1070",
      "ville": "Anderlecht",
      "description": "",
      "lat": 50.81977474,
      "long": 4.28098246,
      "active": true,
      "createdAt": "2023-01-13T07:45:45.343Z",
      "type": null
    },
    {
      "id": 358,
      "nom": "CORA CHÂTELINEAU",
      "adresse": "Rue du Trieu Kaisin, 71 bte 1",
      "code_postal": "6200",
      "ville": "Châtelineau",
      "description": "",
      "lat": 50.41029582,
      "long": 4.49426752,
      "active": true,
      "createdAt": "2023-01-13T07:45:45.349Z",
      "type": null
    },
    {
      "id": 360,
      "nom": "CORA LA LOUVIÈRE",
      "adresse": "Rue de la Franco-Belge, 228 bte 500",
      "code_postal": "7100",
      "ville": "La Louvière",
      "description": "",
      "lat": 50.48615046,
      "long": 4.20442804,
      "active": true,
      "createdAt": "2023-01-13T07:45:45.368Z",
      "type": null
    },
    {
      "id": 361,
      "nom": "CORA MESSANCY",
      "adresse": "Route d'Arlon, 220",
      "code_postal": "6780",
      "ville": "Messancy",
      "description": "",
      "lat": 49.61384014,
      "long": 5.81186086,
      "active": true,
      "createdAt": "2023-01-13T07:45:45.378Z",
      "type": null
    },
    {
      "id": 362,
      "nom": "CORA ROCOURT",
      "adresse": "Chaussée de Tongres, 269",
      "code_postal": "4000",
      "ville": "Rocourt",
      "description": "",
      "lat": 50.66877949,
      "long": 5.54458274,
      "active": true,
      "createdAt": "2023-01-13T07:45:45.386Z",
      "type": null
    },
    {
      "id": 363,
      "nom": "CORA WOLUWE",
      "adresse": "Avenue des communautés, 101",
      "code_postal": "1200",
      "ville": "Woluwe",
      "description": "",
      "lat": 50.8563314,
      "long": 4.42781053,
      "active": true,
      "createdAt": "2023-01-13T07:45:45.391Z",
      "type": null
    },
    {
      "id": 364,
      "nom": "CORA Alès",
      "adresse": "871 Quai du Mas d'Hours",
      "code_postal": "30100",
      "ville": "Alès",
      "description": "",
      "lat": 44.11280411,
      "long": 4.09679149,
      "active": true,
      "createdAt": "2023-01-13T07:45:45.407Z",
      "type": null
    },
    {
      "id": 365,
      "nom": "CORA Amphion",
      "adresse": "RD 1005 Amphion",
      "code_postal": "74500",
      "ville": "Publier",
      "description": "",
      "lat": 46.39180541,
      "long": 6.52582596,
      "active": true,
      "createdAt": "2023-01-13T07:45:45.412Z",
      "type": null
    },
    {
      "id": 366,
      "nom": "CORA Arcueil",
      "adresse": "75 Av. Aristide Briand",
      "code_postal": "94100",
      "ville": "Arcueil",
      "description": "",
      "lat": 48.80535235,
      "long": 2.32572462,
      "active": true,
      "createdAt": "2023-01-13T07:45:45.418Z",
      "type": null
    },
    {
      "id": 367,
      "nom": "CORA Auxerre",
      "adresse": "53 Av. de Paris",
      "code_postal": "89470",
      "ville": "Monéteau",
      "description": "",
      "lat": 47.84453857,
      "long": 3.55339211,
      "active": true,
      "createdAt": "2023-01-13T07:45:45.423Z",
      "type": null
    },
    {
      "id": 368,
      "nom": "CORA Belfort",
      "adresse": "15 Rte de Montbéliard",
      "code_postal": "90400",
      "ville": "Andelnans",
      "description": "",
      "lat": 47.59844822,
      "long": 6.86152866,
      "active": true,
      "createdAt": "2023-01-13T07:45:45.427Z",
      "type": null
    },
    {
      "id": 369,
      "nom": "CORA Blois",
      "adresse": "Centre Commercial Les Couratières Route de Vendôme\nVillebarou",
      "code_postal": "41034",
      "ville": "Blois",
      "description": "",
      "lat": 47.62402191,
      "long": 1.29839647,
      "active": true,
      "createdAt": "2023-01-13T07:45:45.431Z",
      "type": null
    },
    {
      "id": 371,
      "nom": "CORA Bruay",
      "adresse": "1115 Rue de la Libération",
      "code_postal": "62700",
      "ville": "Bruay-la-Buissière",
      "description": "",
      "lat": 50.49509016,
      "long": 2.56868211,
      "active": true,
      "createdAt": "2023-01-13T07:45:45.446Z",
      "type": null
    },
    {
      "id": 372,
      "nom": "CORA Caen",
      "adresse": "Chemin de la Croix Vautier",
      "code_postal": "14980",
      "ville": "Rots",
      "description": "",
      "lat": 49.19935161,
      "long": -0.46005732,
      "active": true,
      "createdAt": "2023-01-13T07:45:45.451Z",
      "type": null
    },
    {
      "id": 373,
      "nom": "CORA Cambrai",
      "adresse": "Centre Commercial Shop'in Cambrai, 2 Avenue Georges Nuttin",
      "code_postal": "59400",
      "ville": "Cambrai",
      "description": "",
      "lat": 50.14777299,
      "long": 3.22291369,
      "active": true,
      "createdAt": "2023-01-13T07:45:45.455Z",
      "type": null
    },
    {
      "id": 374,
      "nom": "CORA Clermont-ferrand",
      "adresse": "Centre commercial Cora Lempdes, 26 Avenue de l'Europe",
      "code_postal": "63370",
      "ville": "Lempdes",
      "description": "",
      "lat": 45.77897608,
      "long": 3.19866119,
      "active": true,
      "createdAt": "2023-01-13T07:45:45.460Z",
      "type": null
    },
    {
      "id": 375,
      "nom": "CORA Colmar",
      "adresse": "Centre Commercial Shop'in Houssen, Zone commerciale du Buhlfeld",
      "code_postal": "68125",
      "ville": "Houssen",
      "description": "",
      "lat": 48.12649556,
      "long": 7.36841826,
      "active": true,
      "createdAt": "2023-01-13T07:45:45.464Z",
      "type": null
    },
    {
      "id": 376,
      "nom": "CORA Courrières",
      "adresse": "RN 319, Rue Raoul Briquet",
      "code_postal": "62710",
      "ville": "Courrières",
      "description": "",
      "lat": 50.44603627,
      "long": 2.94644186,
      "active": true,
      "createdAt": "2023-01-13T07:45:45.468Z",
      "type": null
    },
    {
      "id": 377,
      "nom": "CORA Creil",
      "adresse": "RD1016",
      "code_postal": "60740",
      "ville": "Saint-Maximin",
      "description": "",
      "lat": 49.23634246,
      "long": 2.46990791,
      "active": true,
      "createdAt": "2023-01-13T07:45:45.472Z",
      "type": null
    },
    {
      "id": 378,
      "nom": "CORA Dijon",
      "adresse": "Zac Les Vignes Blanches, Route de Beaune",
      "code_postal": "21160",
      "ville": "Perrigny-lès-Dijon",
      "description": "",
      "lat": 47.2706815,
      "long": 5.00350265,
      "active": true,
      "createdAt": "2023-01-13T07:45:45.477Z",
      "type": null
    },
    {
      "id": 379,
      "nom": "CORA Dole",
      "adresse": "7A Route nationale 73",
      "code_postal": "39100",
      "ville": "Choisey",
      "description": "",
      "lat": 47.06602602,
      "long": 5.45453969,
      "active": true,
      "createdAt": "2023-01-13T07:45:45.482Z",
      "type": null
    },
    {
      "id": 380,
      "nom": "CORA Dorlisheim",
      "adresse": "1 Rue Mercure",
      "code_postal": "67120",
      "ville": "Dorlisheim",
      "description": "",
      "lat": 48.5271145,
      "long": 7.49663499,
      "active": true,
      "createdAt": "2023-01-13T07:45:45.486Z",
      "type": null
    },
    {
      "id": 381,
      "nom": "CORA Dornach",
      "adresse": "258 Rue de Belfort 2418",
      "code_postal": "68200",
      "ville": "Mulhouse",
      "description": "",
      "lat": 47.74022661,
      "long": 7.29234231,
      "active": true,
      "createdAt": "2023-01-13T07:45:45.491Z",
      "type": null
    },
    {
      "id": 382,
      "nom": "CORA Dreux",
      "adresse": "Rue des Bas Buissons",
      "code_postal": "28100",
      "ville": "Dreux",
      "description": "",
      "lat": 48.74909367,
      "long": 1.34474669,
      "active": true,
      "createdAt": "2023-01-13T07:45:45.496Z",
      "type": null
    },
    {
      "id": 383,
      "nom": "CORA Dunkerque",
      "adresse": "Rue Jacquard BP 39",
      "code_postal": "59411",
      "ville": "Coudekerque-Branche",
      "description": "",
      "lat": 51.01657947,
      "long": 2.37996414,
      "active": true,
      "createdAt": "2023-01-13T07:45:45.501Z",
      "type": null
    },
    {
      "id": 384,
      "nom": "CORA Ermont",
      "adresse": "1 Av. du Président Georges Pompidou",
      "code_postal": "95120",
      "ville": "Ermont",
      "description": "",
      "lat": 48.98875186,
      "long": 2.24647474,
      "active": true,
      "createdAt": "2023-01-13T07:45:45.506Z",
      "type": null
    },
    {
      "id": 385,
      "nom": "CORA Essey-lès-nancy",
      "adresse": "Avenue de Saulxures",
      "code_postal": "54270",
      "ville": "Essey-lès-nancy",
      "description": "",
      "lat": 48.70474726,
      "long": 6.24461584,
      "active": true,
      "createdAt": "2023-01-13T07:45:45.510Z",
      "type": null
    },
    {
      "id": 386,
      "nom": "CORA Evreux",
      "adresse": "Bd de Normandie",
      "code_postal": "27000",
      "ville": "Évreux",
      "description": "",
      "lat": 49.02233474,
      "long": 1.13427346,
      "active": true,
      "createdAt": "2023-01-13T07:45:45.514Z",
      "type": null
    },
    {
      "id": 387,
      "nom": "CORA Flers-villeneuve d'ascq",
      "adresse": "18 Rue Jules Guesde",
      "code_postal": "59650",
      "ville": "Villeneuve-d'Ascq",
      "description": "",
      "lat": 50.63557034,
      "long": 3.12090862,
      "active": true,
      "createdAt": "2023-01-13T07:45:45.518Z",
      "type": null
    },
    {
      "id": 388,
      "nom": "CORA Forbach",
      "adresse": "Avenue de l'Europe",
      "code_postal": "57600",
      "ville": "Forbach",
      "description": "",
      "lat": 49.17399724,
      "long": 6.88240466,
      "active": true,
      "createdAt": "2023-01-13T07:45:45.522Z",
      "type": null
    },
    {
      "id": 389,
      "nom": "CORA Garges-lès-gonesse",
      "adresse": "Boulevard de la Muette",
      "code_postal": "95140",
      "ville": "Garges-lès-gonesse",
      "description": "",
      "lat": 48.9748744,
      "long": 2.41669751,
      "active": true,
      "createdAt": "2023-01-13T07:45:45.526Z",
      "type": null
    },
    {
      "id": 390,
      "nom": "CORA Grosbliederstroff",
      "adresse": "15 Avenue Marchande",
      "code_postal": "57520",
      "ville": "Grosbliederstroff",
      "description": "",
      "lat": 49.13541049,
      "long": 7.04510089,
      "active": true,
      "createdAt": "2023-01-13T07:45:45.530Z",
      "type": null
    },
    {
      "id": 391,
      "nom": "CORA Haguenau",
      "adresse": "route du Rhin",
      "code_postal": "67500",
      "ville": "Haguenau",
      "description": "",
      "lat": 48.80235472,
      "long": 7.83602049,
      "active": true,
      "createdAt": "2023-01-13T07:45:45.534Z",
      "type": null
    },
    {
      "id": 392,
      "nom": "CORA Lens",
      "adresse": "RN 47 - route de la Bassée",
      "code_postal": "62880",
      "ville": "Vendin-le-Vieil",
      "description": "",
      "lat": 50.46053618,
      "long": 2.82596147,
      "active": true,
      "createdAt": "2023-01-13T07:45:45.545Z",
      "type": null
    },
    {
      "id": 393,
      "nom": "CORA Les-pavillons-sous-bois",
      "adresse": "Av. Georges Pompidou",
      "code_postal": "93320",
      "ville": "Les-pavillons-sous-bois",
      "description": "",
      "lat": 48.91423953,
      "long": 2.49899555,
      "active": true,
      "createdAt": "2023-01-13T07:45:45.549Z",
      "type": null
    },
    {
      "id": 394,
      "nom": "CORA Limoges",
      "adresse": "Centre Commercial La Coupole, 1 place de Beaubreuil",
      "code_postal": "87280",
      "ville": "Limoges",
      "description": "",
      "lat": 48.92775079,
      "long": 2.55394918,
      "active": true,
      "createdAt": "2023-01-13T07:45:45.554Z",
      "type": null
    },
    {
      "id": 395,
      "nom": "CORA Livry-gargan",
      "adresse": "2-20 Allée de l'Est",
      "code_postal": "93190",
      "ville": "Livry-Gargan",
      "description": "",
      "lat": 48.92780013,
      "long": 2.55391699,
      "active": true,
      "createdAt": "2023-01-13T07:45:45.559Z",
      "type": null
    },
    {
      "id": 396,
      "nom": "CORA Lunéville",
      "adresse": "CD 31",
      "code_postal": "54300",
      "ville": "Moncel-lès-Lunéville",
      "description": "",
      "lat": 48.57850362,
      "long": 6.52080186,
      "active": true,
      "createdAt": "2023-01-13T07:45:45.563Z",
      "type": null
    },
    {
      "id": 397,
      "nom": "CORA Massy",
      "adresse": "Centre Commercial Cora, avenue de l'Europe",
      "code_postal": "91885",
      "ville": "Massy",
      "description": "",
      "lat": 48.72554858,
      "long": 2.27663819,
      "active": true,
      "createdAt": "2023-01-13T07:45:45.567Z",
      "type": null
    },
    {
      "id": 398,
      "nom": "CORA Metz-technopôle",
      "adresse": "10 Boulevard Solidarité",
      "code_postal": "57000",
      "ville": "Metz",
      "description": "",
      "lat": 49.10635046,
      "long": 6.22687416,
      "active": true,
      "createdAt": "2023-01-13T07:45:45.572Z",
      "type": null
    },
    {
      "id": 399,
      "nom": "CORA Mondelange",
      "adresse": "1 Rue de Bousse",
      "code_postal": "57300",
      "ville": "Mondelange",
      "description": "",
      "lat": 49.25941559,
      "long": 6.17428519,
      "active": true,
      "createdAt": "2023-01-13T07:45:45.578Z",
      "type": null
    },
    {
      "id": 400,
      "nom": "CORA Montbéliard",
      "adresse": "136 bis Rte de Bethoncourt",
      "code_postal": "25200",
      "ville": "Montbéliard",
      "description": "",
      "lat": 47.52823548,
      "long": 6.80871814,
      "active": true,
      "createdAt": "2023-01-13T07:45:45.583Z",
      "type": null
    },
    {
      "id": 401,
      "nom": "CORA Moulins-lès-metz",
      "adresse": "Route de Jouy",
      "code_postal": "57160",
      "ville": "Moulins-lès-Metz",
      "description": "",
      "lat": 49.08559705,
      "long": 6.11069235,
      "active": true,
      "createdAt": "2023-01-13T07:45:45.589Z",
      "type": null
    },
    {
      "id": 402,
      "nom": "CORA Nancy-houdemont",
      "adresse": "N57",
      "code_postal": "54182",
      "ville": "Heillecourt",
      "description": "",
      "lat": 48.64059447,
      "long": 6.18571649,
      "active": true,
      "createdAt": "2023-01-13T07:45:45.593Z",
      "type": null
    },
    {
      "id": 403,
      "nom": "CORA Reims-cormontreuil",
      "adresse": "Route de Louvois",
      "code_postal": "51350",
      "ville": "Cormontreuil",
      "description": "",
      "lat": 49.2154397,
      "long": 4.05408019,
      "active": true,
      "createdAt": "2023-01-13T07:45:45.597Z",
      "type": null
    },
    {
      "id": 404,
      "nom": "CORA Reims-neuvillette",
      "adresse": "1 Rue Francis Garnier",
      "code_postal": "51100",
      "ville": "Reims",
      "description": "",
      "lat": 49.28701372,
      "long": 4.02263313,
      "active": true,
      "createdAt": "2023-01-13T07:45:45.601Z",
      "type": null
    },
    {
      "id": 405,
      "nom": "CORA Remiremont",
      "adresse": "26 Route de Bussang",
      "code_postal": "88200",
      "ville": "Remiremont",
      "description": "",
      "lat": 48.00359625,
      "long": 6.61212351,
      "active": true,
      "createdAt": "2023-01-13T07:45:45.606Z",
      "type": null
    },
    {
      "id": 406,
      "nom": "CORA Rennes",
      "adresse": "Boulevard de la Giraudais",
      "code_postal": "35740",
      "ville": "Pacé",
      "description": "",
      "lat": 48.14121348,
      "long": -1.76745623,
      "active": true,
      "createdAt": "2023-01-13T07:45:45.610Z",
      "type": null
    },
    {
      "id": 407,
      "nom": "CORA Saint-avold",
      "adresse": "zone commerciale Du Heckenwald",
      "code_postal": "57740",
      "ville": "Longeville-lès-Saint-Avold",
      "description": "",
      "lat": 49.11154235,
      "long": 6.69408119,
      "active": true,
      "createdAt": "2023-01-13T07:45:45.613Z",
      "type": null
    },
    {
      "id": 408,
      "nom": "CORA Saint-dié",
      "adresse": "183 Rue Ernest Charlier",
      "code_postal": "88100",
      "ville": "Sainte-Marguerite",
      "description": "",
      "lat": 48.27236164,
      "long": 6.96751801,
      "active": true,
      "createdAt": "2023-01-13T07:45:45.617Z",
      "type": null
    },
    {
      "id": 409,
      "nom": "CORA Saint-dizier",
      "adresse": "Route de Bar le Duc",
      "code_postal": "52100",
      "ville": "Saint-Dizier",
      "description": "",
      "lat": 48.65012285,
      "long": 4.95999992,
      "active": true,
      "createdAt": "2023-01-13T07:45:45.622Z",
      "type": null
    },
    {
      "id": 410,
      "nom": "CORA Saint-malo",
      "adresse": "Le Moulin du Domaine",
      "code_postal": "35430",
      "ville": "Saint-Jouan-des-Guérets",
      "description": "",
      "lat": 48.60656475,
      "long": -1.97792941,
      "active": true,
      "createdAt": "2023-01-13T07:45:45.631Z",
      "type": null
    },
    {
      "id": 411,
      "nom": "CORA Saint-quentin",
      "adresse": "Route de Bohain",
      "code_postal": "21000",
      "ville": "Saint-Quentin",
      "description": "",
      "lat": 49.86679194,
      "long": 3.290825,
      "active": true,
      "createdAt": "2023-01-13T07:45:45.636Z",
      "type": null
    },
    {
      "id": 412,
      "nom": "CORA Sainte-marie-aux-chênes",
      "adresse": "643 Rue de la Moselle",
      "code_postal": "57255",
      "ville": "Sainte-Marie-aux-Chênes",
      "description": "",
      "lat": 49.19698481,
      "long": 5.99168649,
      "active": true,
      "createdAt": "2023-01-13T07:45:45.640Z",
      "type": null
    },
    {
      "id": 413,
      "nom": "CORA Sarrebourg",
      "adresse": "Rue de Phalsbourg",
      "code_postal": "57400",
      "ville": "Sarrebourg",
      "description": "",
      "lat": 48.73933739,
      "long": 7.06875642,
      "active": true,
      "createdAt": "2023-01-13T07:45:45.644Z",
      "type": null
    },
    {
      "id": 414,
      "nom": "CORA Sarreguemines",
      "adresse": "50 Rue de Bitche",
      "code_postal": "57200",
      "ville": "Sarreguemines",
      "description": "",
      "lat": 49.11791767,
      "long": 7.09417069,
      "active": true,
      "createdAt": "2023-01-13T07:45:45.648Z",
      "type": null
    },
    {
      "id": 415,
      "nom": "CORA Soissons",
      "adresse": "3 Av. Raymonde Fiolet",
      "code_postal": "2200",
      "ville": "Soissons",
      "description": "",
      "lat": 49.36958852,
      "long": 3.31274328,
      "active": true,
      "createdAt": "2023-01-13T07:45:45.652Z",
      "type": null
    },
    {
      "id": 416,
      "nom": "CORA Strasbourg",
      "adresse": "Centre Commercial Shop'in Mundo', Route Métropolitaine, RN 63",
      "code_postal": "67450",
      "ville": "Mundolsheim",
      "description": "",
      "lat": 48.74713946,
      "long": 7.69784859,
      "active": true,
      "createdAt": "2023-01-13T07:45:45.656Z",
      "type": null
    },
    {
      "id": 417,
      "nom": "CORA Toul",
      "adresse": "678 Avenue du Général Bigeard",
      "code_postal": "54200",
      "ville": "Toul",
      "description": "",
      "lat": 48.66393424,
      "long": 5.88730028,
      "active": true,
      "createdAt": "2023-01-13T07:45:45.660Z",
      "type": null
    },
    {
      "id": 418,
      "nom": "CORA Val d'yerres",
      "adresse": "Centre Commercial Val d'Yerres 2",
      "code_postal": "91800",
      "ville": "Boussy-Saint-Antoine",
      "description": "",
      "lat": 48.68227538,
      "long": 2.53371345,
      "active": true,
      "createdAt": "2023-01-13T07:45:45.664Z",
      "type": null
    },
    {
      "id": 419,
      "nom": "CORA Verdun",
      "adresse": "Avenue de Metz",
      "code_postal": "55100",
      "ville": "Verdun",
      "description": "",
      "lat": 49.14300709,
      "long": 5.40687452,
      "active": true,
      "createdAt": "2023-01-13T07:45:45.668Z",
      "type": null
    },